GHCND.ID,EVENTS.begin_date,EVENTS.ID,EVENTS.begin_time_UTC,EVENTS.end_date,EVENTS.end_time_UTC,EVENTS.state,EVENTS.fips,EVENTS.type,EVENTS.czfips,EVENTS.czname,EVENTS.wfo,EVENTS.begin_lat,EVENTS.begin_lon,EVENTS.end_lat,EVENTS.end_lon,EVENTS.damage_value,EVENTS.damage_magnitude,EVENTS.damage_unit,GHCND.name,GHCND.lat,GHCND.lon,GHCND.dist_from_event.km,MOS.ICAO,MOS.name,MOS.lat,MOS.lon,MOS.st,MOS.dist_from_event.km,prcp.prcp,Q12.f1,Q12.f5,P12.f1,P12.f5,Q12.f1,Q12.f5,P12.f1,P12.f5,Q24.f2,Q24.f6,P24.f2,P24.f6
US10adam001,2013-08-04,475467,0826,2013-08-04,0826,KANSAS,20,Heavy Rain,83,HODGEMAN,DDC,38.08,-100.13,38.08,-100.13,0,3,USD,JUNIATA 1.5 S,40.568,-98.5069,2.4402290899144994,KDDC,DODGE CITY,37.77,-99.97,KS,37.2594485817924,2,  0,  0, 12, 19,  0,  0, 12, 19,  0,  0, 12, 25
US10adam002,2013-09-06,475728,1230,2013-09-07,1230,MONTANA,30,Heavy Rain,35,GLACIER,TFX,48.3,-112.85,48.3,-112.85,0,3,USD,JUNIATA 6.0 SSW,40.5093,-98.5493,0.09777853211570996,KCTB,CUTBANK,48.6,-112.37,MT,48.69623864304917,0,  0,  0, 14,  8,  0,  0, 14,  8,  0,  0, 27, 15
US10adam002,2016-08-01,650442,0830,2016-08-01,1525,IOWA,19,Heavy Rain,159,RINGGOLD,DMX,40.81,-94.34,40.81,-94.34,0,3,USD,JUNIATA 6.0 SSW,40.5093,-98.5493,1.611877222000805,KCSQ,CRESTON,41.02,-94.37,IA,23.51291853083306,0,  0,  0, 22, 19,  0,  0, 22, 19,  0,  0, 23, 39
US10adam004,2012-06-14,383238,2300,2012-06-15,1300,NEBRASKA,31,Heavy Rain,129,NUCKOLLS,GID,40.29,-98.1,40.29,-98.1,0,3,USD,AYR 3.5 NE,40.4798,-98.4026,3.7279362876875966,KHSI,HASTINGS,40.6,-98.43,NE,44.41222579576191,0,NA,NA,NA,NA,NA,NA,NA,NA,NA,NA,NA,NA
US10adam004,2013-03-23,438881,0030,2013-03-23,0030,FLORIDA,12,Heavy Rain,19,CLAY,JAX,30.17,-81.7,30.17,-81.7,0,3,USD,AYR 3.5 NE,40.4798,-98.4026,3.771372258475851,KNIP,JACKSONVILLE NAS,30.23,-81.68,FL,6.950819952645378,0,NA,NA,NA,NA,NA,NA,NA,NA,NA,NA,NA,NA
US10adam004,2013-08-05,472275,0425,2013-08-05,0520,SOUTH DAKOTA,46,Heavy Rain,103,PENNINGTON,UNR,44.1049,-103.2116,44.0996,-103.2039,10,3,USD,AYR 3.5 NE,40.4798,-98.4026,1.1116805492436506,KRCA,ELLSWORTH AFB,44.15,-103.1,SD,10.233481153176948,0,  0,  0, 16, 15,  0,  0, 16, 15,  2,  2, 63, 44
US10adam008,2013-08-06,475508,2345,2013-08-06,0045,VIRGINIA,51,Heavy Rain,770,ROANOKE (C),RNK,37.2913,-79.8921,37.2913,-79.8921,0,3,USD,GLENVIL 2.3 WSW,40.4953,-98.2973,0.8534523775635101,KROA,ROANOKE,37.32,-79.97,VA,7.601637348603591,0,  0,  0,  4, 13,  0,  0,  4, 13,  0,  0, 16, 35
US10adam010,2013-08-01,475208,0000,2013-08-02,1200,NEBRASKA,31,Heavy Rain,35,CLAY,GID,40.52,-98.05,40.52,-98.05,0,3,USD,JUNIATA 6.9 WSW,40.5532,-98.6297,1.8280040379831743,KHSI,HASTINGS,40.6,-98.43,NE,33.34850617001719,0,  0,  0, 12, 17,  0,  0, 12, 17,  0,  1, 26, 37
US10adam013,2014-08-01,540734,0701,2014-08-31,0800,IDAHO,16,Heavy Rain,63,LINCOLN,PIH,43.12,-114.25,42.95,-114.57,3e3,3,USD,HASTINGS 5.3 NNW,40.66,-98.42,0.8435129286046191,KSUN,HAILEY,43.5,-114.3,ID,42.49484754263832,1,  0,  0, 17, 15,  0,  0, 17, 15,  0,  0, 29, 28
US10adam017,2015-05-29,574912,2030,2015-05-29,2130,MICHIGAN,26,Heavy Rain,103,MARQUETTE,MQT,46.4875,-87.2322,46.4875,-87.2322,30,3,USD,JUNIATA 4.8 NNE,40.6567,-98.4789,0.8356228351026056,KSAW,GWINN,46.35,-87.4,MI,20.00275473374731,3,  0,  1, 11, 34,  0,  1, 11, 34,  0,  0, 34, 35
US10adam032,2011-07-22,331730,0153,2011-07-22,0253,NORTH DAKOTA,38,Heavy Rain,25,DUNN,BIS,47.46,-102.47,47.46,-102.47,0,3,USD,BLUE HILL 2.2 NE,40.3571,-98.4208,0.5266461680742114,KDIK,DICKINSON,46.78,-102.8,ND,79.71762327975837,2,NA,NA,NA,NA,NA,NA,NA,NA,NA,NA,NA,NA
US10adam032,2016-08-11,655388,2245,2016-08-12,0730,IOWA,19,Heavy Rain,15,BOONE,DMX,42.02,-93.93,42.02,-93.93,0,3,USD,BLUE HILL 2.2 NE,40.3571,-98.4208,0.4939315590492829,KBNW,BOONE_MUNI,42.05,-93.85,IA,7.409733518827861,0,  0,  0,  8, 30,  0,  0,  8, 30,  0,  0, 16, 39
US10adam033,2010-09-22,262967,2030,2010-09-23,0400,MINNESOTA,27,Heavy Rain,169,WINONA,ARX,44.1,-91.75,44.1,-91.75,0,3,USD,GLENVIL 8.3 SW,40.4127,-98.3538,0.9666420476351661,KONA,WINONA_MUNI,44.08,-91.7,MN,4.575893894416848,0,NA,NA,NA,NA,NA,NA,NA,NA,NA,NA,NA,NA
US10adam033,2010-09-25,258073,1700,2010-09-25,2200,TEXAS,48,Heavy Rain,107,CROSBY,LUB,33.67,-101.25,33.67,-101.25,0,3,USD,GLENVIL 8.3 SW,40.4127,-98.3538,2.9138947757974107,KLBB,LUBBOCK,33.65,-101.82,TX,52.86064878658715,1,NA,NA,NA,NA,NA,NA,NA,NA,NA,NA,NA,NA
US10adam041,2010-08-25,257565,1945,2010-08-25,1953,CALIFORNIA,6,Heavy Rain,71,SAN BERNARDINO,SGX,34.09,-117.02,34.09,-117.02,0,3,USD,AYR 0.3 SSE,40.434,-98.4389,2.232207056172337,KRIV,MARCH AFB,33.9,-117.25,CA,29.965943683594126,0,NA,NA,NA,NA,NA,NA,NA,NA,NA,NA,NA,NA
US10adam041,2010-09-29,262647,1300,2010-09-30,0400,VIRGINIA,51,Heavy Rain,93,ISLE OF WIGHT,AKQ,36.72,-76.82,36.72,-76.82,0,3,USD,AYR 0.3 SSE,40.434,-98.4389,2.232207056172337,KFKN,FRANKLIN/J_B_ROSE,36.7,-76.9,VA,7.478426417845988,0,NA,NA,NA,NA,NA,NA,NA,NA,NA,NA,NA,NA
US10adam046,2011-10-07,344963,1200,2011-10-08,1200,NEBRASKA,31,Heavy Rain,65,FURNAS,GID,40.2807,-99.6702,40.2807,-99.6702,0,3,USD,HASTINGS 3.3 SW,40.5443,-98.4208,0.5570009675704344,KHDE,BREWSTER FIELD,40.45,-99.33,NE,34.4643714426749,2,NA,NA,NA,NA,NA,NA,NA,NA,NA,NA,NA,NA
US10adam046,2011-10-07,344963,1200,2011-10-08,1200,NEBRASKA,31,Heavy Rain,65,FURNAS,GID,40.2807,-99.6702,40.2807,-99.6702,0,3,USD,HASTINGS 3.3 SW,40.5443,-98.4208,0.5570009675704344,KHDE,BREWSTER FIELD,40.45,-99.33,NE,34.4643714426749,2,NA,NA,NA,NA,NA,NA,NA,NA,NA,NA,NA,NA
US10adam046,2011-10-07,344962,1200,2011-10-08,1200,NEBRASKA,31,Heavy Rain,65,FURNAS,GID,40.3302,-99.6736,40.3302,-99.6736,0,3,USD,HASTINGS 3.3 SW,40.5443,-98.4208,1.2488753836640436,KHDE,BREWSTER FIELD,40.45,-99.33,NE,32.03997623195219,2,NA,NA,NA,NA,NA,NA,NA,NA,NA,NA,NA,NA
US10adam046,2011-10-07,344962,1200,2011-10-08,1200,NEBRASKA,31,Heavy Rain,65,FURNAS,GID,40.3302,-99.6736,40.3302,-99.6736,0,3,USD,HASTINGS 3.3 SW,40.5443,-98.4208,1.2488753836640436,KHDE,BREWSTER FIELD,40.45,-99.33,NE,32.03997623195219,2,NA,NA,NA,NA,NA,NA,NA,NA,NA,NA,NA,NA
US10adam051,2016-08-11,655390,0215,2016-08-12,0830,IOWA,19,Heavy Rain,181,WARREN,DMX,41.48,-93.76,41.48,-93.76,0,3,USD,ROSELAND 3.9 SSE,40.4166,-98.5341,1.1175458803009084,KDSM,DES MOINES,41.53,-93.65,IA,10.727329230319878,0,  0,  0, 12, 28,  0,  0, 12, 28,  0,  1, 20, 44
US10box_001,2012-11-30,419936,1731,2012-11-30,1731,CALIFORNIA,6,Heavy Rain,53,MONTEREY,MTR,36.06,-121.52,36.06,-121.52,0,3,USD,ALLIANCE 7.4 NW,42.1911,-102.9518,3.3365898567112837,KMRY,MONTEREY,36.58,-121.85,CA,65.01431408790364,0,NA,NA,NA,NA,NA,NA,NA,NA,NA,NA,NA,NA
US10box_001,2012-11-30,419936,1731,2012-11-30,1731,CALIFORNIA,6,Heavy Rain,53,MONTEREY,MTR,36.06,-121.52,36.06,-121.52,0,3,USD,ALLIANCE 7.4 NW,42.1911,-102.9518,3.3365898567112837,KMRY,MONTEREY,36.58,-121.85,CA,65.01431408790364,0,NA,NA,NA,NA,NA,NA,NA,NA,NA,NA,NA,NA
US10box_001,2012-11-30,420237,2351,2012-11-30,2351,CALIFORNIA,6,Heavy Rain,43,MARIPOSA,HNX,37.54,-119.63,37.54,-119.63,0,3,USD,ALLIANCE 7.4 NW,42.1911,-102.9518,6.517648534990018,KMAE,MADERA,36.98,-120.12,CA,75.96590265110879,0,NA,NA,NA,NA,NA,NA,NA,NA,NA,NA,NA,NA
US10box_001,2012-11-30,420237,2351,2012-11-30,2351,CALIFORNIA,6,Heavy Rain,43,MARIPOSA,HNX,37.54,-119.63,37.54,-119.63,0,3,USD,ALLIANCE 7.4 NW,42.1911,-102.9518,6.517648534990018,KMAE,MADERA,36.98,-120.12,CA,75.96590265110879,0,NA,NA,NA,NA,NA,NA,NA,NA,NA,NA,NA,NA
US10box_013,2014-06-26,514587,1300,2014-06-26,1711,IOWA,19,Heavy Rain,153,POLK,DMX,41.61,-93.69,41.61,-93.69,0,3,USD,ALLIANCE 1.2 NW,42.1138,-102.8901,0.6559764850907996,KDSM,DES MOINES,41.53,-93.65,IA,9.50824499795479,0,  0,  1, 16, 36,  0,  1, 16, 36,  0,  1, 34, 45
US10box_014,2014-04-07,507156,0620,2014-04-07,0620,MISSISSIPPI,28,Heavy Rain,121,RANKIN,JAN,32.18,-90.12,32.18,-90.12,0,3,USD,ALLIANCE 13.6 N,42.2981,-102.8596,0.9909378412239052,KJAN,JACKSON,32.32,-90.08,MS,16.03325610668318,0,  6,  4,100, 64,  6,  4,100, 64,  6,  4,100, 58
US10box_014,2014-04-27,503165,1932,2014-04-27,1932,IOWA,19,Heavy Rain,153,POLK,DMX,41.59,-93.75,41.59,-93.75,0,3,USD,ALLIANCE 13.6 N,42.2981,-102.8596,1.3941212229530178,KDSM,DES MOINES,41.53,-93.65,IA,10.676780629583801,0,  0,  0, 16, 23,  0,  0, 16, 23,  0,  0, 21, 23
US10box_024,2014-04-27,503163,1842,2014-04-27,1842,IOWA,19,Heavy Rain,39,CLARKE,DMX,41.03,-93.77,41.03,-93.77,0,3,USD,HEMINGFORD 4.2 E,42.3263,-102.9934,0.7143339329088381,KCNC,CHARITON,41.03,-93.37,IA,33.59022464591278,0,  0,  0, 18, 24,  0,  0, 18, 24,  0,  0, 21, 23
US10buff002,2011-08-08,335018,2327,2011-08-08,2327,ILLINOIS,17,Heavy Rain,177,STEPHENSON,DVN,42.33,-89.58,42.33,-89.58,0,3,USD,KEARNEY 1.8 WNW,40.7062,-99.1142,1.4014317931219755,KFEP,ALBERTUS AIRPORT,42.25,-89.58,IL,8.905559263462038,3,NA,NA,NA,NA,NA,NA,NA,NA,NA,NA,NA,NA
US10buff002,2014-09-08,543332,1000,2014-09-09,1200,VIRGINIA,51,Heavy Rain,25,BRUNSWICK,AKQ,36.65,-77.87,36.65,-77.87,0,3,USD,KEARNEY 1.8 WNW,40.7062,-99.1142,0.6461801351208065,KAVC,MECKLENBURG-BRUNSW,36.69,-78.05,VA,16.677278977321457,0,  0,  1, 39, 35,  0,  1, 39, 35,  3,  1, 82, 44
US10buff004,2011-04-24,304761,0042,2011-04-24,0042,KENTUCKY,21,Heavy Rain,113,JESSAMINE,LMK,37.87,-84.66,37.87,-84.66,0,3,USD,KEARNEY 0.9 SW,40.6908,-99.094,0.11891795822314319,KLEX,LEXINGTON,38.03,-84.6,KY,18.573517041595224,0,NA,NA,NA,NA,NA,NA,NA,NA,NA,NA,NA,NA
US10buff004,2014-10-09,543493,0000,2014-10-09,0040,ARIZONA,4,Heavy Rain,25,YAVAPAI,FGZ,34.8288,-112.5324,34.8666,-112.4633,0,3,USD,KEARNEY 0.9 SW,40.6908,-99.094,0.5136387235312235,KPRC,PRESCOTT,34.65,-112.43,AZ,21.99798694750477,0,  2,  0, 51,  3,  2,  0, 51,  3,  3,  0, 72,  8
US10buff007,2011-09-03,331996,1200,2011-09-06,1200,FLORIDA,12,Heavy Rain,5,BAY,TAE,30.2,-85.6333,30.2,-85.6333,0,3,USD,RAVENNA 3.3 SE,40.9903,-98.8699,1.9111409995082878,KPFN,PANAMA CITY,30.2,-85.68,FL,4.493036429643495,0,NA,NA,NA,NA,NA,NA,NA,NA,NA,NA,NA,NA
US10buff007,2013-10-05,480664,1900,2013-10-06,1200,ILLINOIS,17,Heavy Rain,3,ALEXANDER,PAH,37,-89.18,37,-89.18,0,3,USD,RAVENNA 3.3 SE,40.9903,-98.8699,1.4419878135523783,KCIR,CAIRO,37,-89.17,IL,0.8890369826712996,0,  0,  0,  8, 17,  0,  0,  8, 17,  0,  4, 28, 58
US10buff008,2011-08-08,335016,2250,2011-08-08,2250,ILLINOIS,17,Heavy Rain,177,STEPHENSON,DVN,42.38,-89.83,42.38,-89.83,0,3,USD,RAVENNA 5.3 SW,40.9593,-98.9631,3.631714626908171,KFEP,ALBERTUS AIRPORT,42.25,-89.58,IL,25.15784013731433,2,NA,NA,NA,NA,NA,NA,NA,NA,NA,NA,NA,NA
US10buff013,2011-09-04,332001,2030,2011-09-04,2030,FLORIDA,12,Heavy Rain,73,LEON,TAE,30.4441,-84.2727,30.4441,-84.2727,0,3,USD,ELM CREEK 2.2 WSW,40.6995,-99.4062,1.04798196944307,KTLH,TALLAHASSEE,30.38,-84.37,FL,11.754657873929926,0,NA,NA,NA,NA,NA,NA,NA,NA,NA,NA,NA,NA
US10buff025,2011-06-21,306425,1300,2011-06-21,1643,LOUISIANA,22,Heavy Rain,31,DE SOTO,SHV,32.03,-93.7,32.03,-93.7,0,3,USD,KEARNEY 5.0 WNW,40.7412,-99.1602,1.6455236685844228,KSHV,SHREVEPORT,32.47,-93.82,LA,50.26658296430437,1,NA,NA,NA,NA,NA,NA,NA,NA,NA,NA,NA,NA
US10buff036,2014-09-16,542876,0700,2014-09-19,1900,NEW MEXICO,35,Heavy Rain,13,DONA ANA,EPZ,31.8512,-106.6309,31.8512,-106.6309,0,3,USD,RIVERDALE 0.2 WNW,40.7853,-99.1653,0.7392175710089267,KELP,EL PASO,31.8,-106.4,TX,22.570779163145,0,  0,  3, 18, 28,  0,  3, 18, 28,  0,  0, 20, 29
US10ceda015,2011-04-23,304714,2000,2011-04-23,2000,KENTUCKY,21,Heavy Rain,73,FRANKLIN,LMK,38.22,-84.82,38.22,-84.82,0,3,USD,RANDOLPH 0.4 SSW,42.3722,-97.3592,1.1503744212414848,KFFT,FRANKFORT,38.18,-84.9,KY,8.294948575622284,0,NA,NA,NA,NA,NA,NA,NA,NA,NA,NA,NA,NA
US10chey019,2012-03-03,359645,1200,2012-03-04,1200,GEORGIA,13,Heavy Rain,71,COLQUITT,TAE,31.12,-83.86,31.12,-83.86,0,3,USD,GURLEY 1.3 W,41.3264,-102.9948,2.103175073272343,KMGR,MOULTRIE,31.08,-83.8,GA,7.248168964852449,0,NA,NA,NA,NA,NA,NA,NA,NA,NA,NA,NA,NA
US10chey019,2013-04-09,442241,0845,2013-04-10,1200,IOWA,19,Heavy Rain,131,MITCHELL,ARX,43.28,-92.81,43.28,-92.81,0,3,USD,GURLEY 1.3 W,41.3264,-102.9948,2.103175073272343,KCCY,CHARLES CITY,43.07,-92.62,IA,28.00719686416634,4,NA,NA,NA,NA,NA,NA,NA,NA,NA,NA,NA,NA
US10chey021,2014-06-26,515132,1200,2014-06-27,1200,IOWA,19,Heavy Rain,3,ADAMS,DMX,40.99,-94.74,40.99,-94.74,0,3,USD,SIDNEY 0.9 NNW,41.1554,-102.9844,0.7044537107223856,KCSQ,CRESTON,41.02,-94.37,IA,31.261645827776057,2,  0,  1, 12, 36,  0,  1, 12, 36,  1,  1, 43, 43
US10clay004,2013-09-18,478301,2330,2013-09-18,0030,ILLINOIS,17,Heavy Rain,31,COOK,LOT,41.9363,-87.6929,41.9363,-87.6929,0,3,USD,CLAY CENTER 2.8 W,40.5318,-98.107,1.33637584463611,KORD,CHICAGO-OHARE,41.98,-87.9,IL,17.82074083578649,1,  0,  0,  3, 27,  0,  0,  3, 27,  0,  0,  5, 24
US10clay004,2014-09-09,533163,0056,2014-09-09,0056,IOWA,19,Heavy Rain,181,WARREN,DMX,41.36,-93.57,41.36,-93.57,0,3,USD,CLAY CENTER 2.8 W,40.5318,-98.107,1.9458023607956534,KDSM,DES MOINES,41.53,-93.65,IA,20.06719315931404,0,  0,  1, 11, 33,  0,  1, 11, 33,  0,  1, 22, 46
US10clay008,2010-08-25,257562,1845,2010-08-25,1945,CALIFORNIA,6,Heavy Rain,71,SAN BERNARDINO,SGX,34.25,-116.85,34.25,-116.85,0,3,USD,CLAY CENTER 4.8 SSE,40.4549,-98.0329,1.2299645536884425,KRIV,MARCH AFB,33.9,-117.25,CA,53.65013798198961,0,NA,NA,NA,NA,NA,NA,NA,NA,NA,NA,NA,NA
US10clay008,2011-03-30,281807,2000,2011-03-30,2005,FLORIDA,12,Heavy Rain,83,MARION,JAX,28.96,-82,28.96,-82,0,3,USD,CLAY CENTER 4.8 SSE,40.4549,-98.0329,1.2299645536884425,KVVG,THE VILLAGES,28.96,-81.97,FL,2.9219962124480823,0,NA,NA,NA,NA,NA,NA,NA,NA,NA,NA,NA,NA
US10clay008,2011-11-01,350479,0600,2011-11-30,0559,ARKANSAS,5,Heavy Rain,137,STONE,LZK,35.87,-92.12,35.87,-92.12,0,3,USD,CLAY CENTER 4.8 SSE,40.4549,-98.0329,1.8702027120849667,KBVX,BATESVILLE,35.73,-91.65,AR,45.206264376210946,0,NA,NA,NA,NA,NA,NA,NA,NA,NA,NA,NA,NA
US10clay008,2012-05-24,380338,1300,2012-05-24,1300,MINNESOTA,27,Heavy Rain,171,WRIGHT,MPX,45.04,-93.9,45.04,-93.9,0,3,USD,CLAY CENTER 4.8 SSE,40.4549,-98.0329,1.8702027120849667,KCFE,BUFFALO MUNI ARPT,45.16,-93.84,MN,14.165908913530057,1,NA,NA,NA,NA,NA,NA,NA,NA,NA,NA,NA,NA
US10clay013,2010-08-25,257566,2200,2010-08-25,2235,CALIFORNIA,6,Heavy Rain,71,SAN BERNARDINO,SGX,34.36,-117.63,34.36,-117.63,0,3,USD,FAIRFIELD 2.8 NE,40.4615,-98.0694,0.8125683152884218,KONT,ONTARIO,34.05,-117.62,CA,34.52132060484622,0,NA,NA,NA,NA,NA,NA,NA,NA,NA,NA,NA,NA
US10clay021,2014-09-09,533166,0106,2014-09-09,0106,IOWA,19,Heavy Rain,1,ADAIR,DMX,41.31,-94.46,41.31,-94.46,0,3,USD,CLAY CENTER 4.7 WSW,40.4813,-98.1273,2.169047328391457,KCSQ,CRESTON,41.02,-94.37,IA,33.152004051384615,0,  0,  1,  9, 33,  0,  1,  9, 33,  0,  1, 20, 48
US10clay023,2012-06-16,377951,1400,2012-06-16,1500,KENTUCKY,21,Heavy Rain,211,SHELBY,LMK,38.2118,-85.2175,38.2118,-85.2175,0,3,USD,CLAY CENTER 5.2 S,40.4473,-98.0466,1.1808862756077403,KFFT,FRANKFORT,38.18,-84.9,KY,28.001489787683447,4,NA,NA,NA,NA,NA,NA,NA,NA,NA,NA,NA,NA
US10clay029,2011-11-01,350492,0600,2011-11-30,0559,ARKANSAS,5,Heavy Rain,135,SHARP,LZK,36.0834,-91.6132,36.0834,-91.6132,0,3,USD,FAIRFIELD 1.6 S,40.4086,-98.1087,1.207118602088687,KBVX,BATESVILLE,35.73,-91.65,AR,39.47998913119423,0,NA,NA,NA,NA,NA,NA,NA,NA,NA,NA,NA,NA
US10clay029,2012-07-18,389551,1550,2012-07-18,1855,KENTUCKY,21,Heavy Rain,119,KNOTT,JKL,37.41,-82.98,37.41,-82.98,0,3,USD,FAIRFIELD 1.6 S,40.4086,-98.1087,1.226355047753793,KJKL,JACKSON,37.6,-83.32,KY,36.7269526063294,3,NA,NA,NA,NA,NA,NA,NA,NA,NA,NA,NA,NA
US10clay029,2013-08-01,475209,0000,2013-08-02,1200,NEBRASKA,31,Heavy Rain,35,CLAY,GID,40.52,-98.11,40.52,-98.11,0,3,USD,FAIRFIELD 1.6 S,40.4086,-98.1087,1.4660748712459934,KHSI,HASTINGS,40.6,-98.43,NE,28.490704895465313,0,  0,  0, 12, 17,  0,  0, 12, 17,  0,  1, 26, 37
US10clay037,2012-05-24,380336,1300,2012-05-24,1300,MINNESOTA,27,Heavy Rain,171,WRIGHT,MPX,45.22,-93.64,45.22,-93.64,0,3,USD,SUTTON 0.7 SW,40.5967,-97.8673,5.9052694443798845,KCFE,BUFFALO MUNI ARPT,45.16,-93.84,MN,17.053091786347224,1,NA,NA,NA,NA,NA,NA,NA,NA,NA,NA,NA,NA
US10clay039,2013-07-25,460521,0200,2013-07-26,0200,MICHIGAN,26,Heavy Rain,95,LUCE,MQT,46.34,-85.69,46.34,-85.69,0,3,USD,HARVARD 0.2 ESE,40.6236,-98.0925,0.7489502499324455,KERY,NEWBERRY,46.31,-85.46,MI,17.99353835281896,0,  0,  0,  9, 16,  0,  0,  9, 16,  0,  0, 11, 30
US10clay039,2013-09-29,476374,0600,2013-09-29,0600,TEXAS,48,Heavy Rain,331,MILAM,FWD,30.61,-97.05,30.61,-97.05,0,3,USD,HARVARD 0.2 ESE,40.6236,-98.0925,0.6221753321639012,KRWV,CALDWELL MUNI AP,30.52,-96.7,TX,35.012210447545606,0,  3,  0, 59, 34,  3,  0, 59, 34,  1,  0, 55, 33
US10clay041,2013-09-27,477099,0025,2013-09-27,0200,TEXAS,48,Heavy Rain,393,ROBERTS,AMA,35.7819,-100.7309,35.7819,-100.7309,0,3,USD,CLAY CENTER 0.2 ESE,40.5199,-98.0526,0.22005426977824957,KPPA,PAMPA/PERRY LEFORS,35.61,-101,TX,30.952110453488107,0,  0,  0,  2,  6,  0,  0,  2,  6,  0,  0,  5, 13
US10clay041,2014-09-02,532183,2210,2014-09-02,2310,GEORGIA,13,Heavy Rain,245,RICHMOND,CAE,33.47,-81.97,33.47,-81.97,0,3,USD,CLAY CENTER 0.2 ESE,40.5199,-98.0526,0.22005426977824957,KDNL,AUGUSTA,33.47,-82.03,GA,5.57159410129158,0,  0,  0,  8, 23,  0,  0,  8, 23,  0,  1, 17, 44
US10clay041,2015-07-20,597252,0100,2015-07-20,0400,CALIFORNIA,6,Heavy Rain,109,TUOLUMNE,STO,37.83,-120.23,37.83,-120.23,0,3,USD,CLAY CENTER 0.2 ESE,40.5199,-98.0526,0.22005426977824957,KMOD,MODESTO,37.63,-120.95,CA,67.18674513232708,0,  0,  0, 21,  5,  0,  0, 21,  5,  0,  3,  9, 50
US10cumi007,2011-06-22,311764,1900,2011-06-22,2145,TEXAS,48,Heavy Rain,61,CAMERON,BRO,26.1345,-97.6382,26.1675,-97.8226,0,3,USD,WEST POINT 1.5 S,41.82,-96.71,1.3867308399066287,KHRL,HARLINGEN,26.23,-97.67,TX,11.095498736497664,2,NA,NA,NA,NA,NA,NA,NA,NA,NA,NA,NA,NA
US10dawe002,2010-05-01,229699,1600,2010-05-01,1830,KENTUCKY,21,Heavy Rain,47,CHRISTIAN,PAH,36.78,-87.35,36.78,-87.35,0,3,USD,CHADRON 0.4 SE,42.8304,-102.9956,0.3615539486662997,KHOP,FT. CAMBELL AAF,36.67,-87.5,KY,18.140148836094898,0,NA,NA,NA,NA,NA,NA,NA,NA,NA,NA,NA,NA
US10dawe002,2014-06-16,520300,0000,2014-06-16,0530,IOWA,19,Heavy Rain,21,BUENA VISTA,FSD,42.88,-95.34,42.88,-95.34,0,3,USD,CHADRON 0.4 SE,42.8304,-102.9956,0.3615539486662997,KSLB,STORM_LAKE,42.6,-95.23,IA,32.440939777496965,4,  0,  0, 33, 27,  0,  0, 33, 27,  4,  4, 92, 58
US10dawe006,2014-06-16,520299,0000,2014-06-16,0514,IOWA,19,Heavy Rain,35,CHEROKEE,FSD,42.78,-95.51,42.78,-95.51,0,3,USD,CRAWFORD 6.8 E,42.6675,-103.2848,1.4100116370701319,KSLB,STORM_LAKE,42.6,-95.23,IA,30.43672641565748,0,  0,  0, 33, 27,  0,  0, 33, 27,  4,  4, 92, 58
US10dawe017,2014-06-01,518286,1715,2014-06-01,2150,WISCONSIN,55,Heavy Rain,123,VERNON,ARX,43.49,-90.92,43.49,-90.92,0,3,USD,MARSLAND 8.2 E,42.4672,-103.145,1.9188936373102352,KOVS,BOSCOBEL,43.15,-90.68,WI,42.5478767978091,3,  0,  0, 31, 17,  0,  0, 31, 17,  0,  0, 30, 29
US10dawe018,2014-06-30,516309,1015,2014-06-30,1145,IOWA,19,Heavy Rain,25,CALHOUN,DMX,42.4,-94.63,42.4,-94.63,0,3,USD,HEMINGFORD 13.2 N,42.5116,-103.1096,2.4327474388964307,KFOD,FT DODGE,42.55,-94.18,IA,40.54567874902862,0,  1,  2, 43, 38,  1,  2, 43, 38,  4,  4, 82, 70
US10daws008,2013-10-02,477574,0200,2013-10-03,1100,NEBRASKA,31,Heavy Rain,1,ADAMS,GID,40.56,-98.35,40.56,-98.35,0,3,USD,COZAD 4.4 S,40.7966,-99.9956,2.409679170764959,KHSI,HASTINGS,40.6,-98.43,NE,8.097880136427058,0,  0,  0,  1, 12,  0,  0,  1, 12,  0,  0,  8,  7
US10daws010,2016-09-21,659252,0125,2016-09-22,1200,WISCONSIN,55,Heavy Rain,123,VERNON,ARX,43.55,-90.87,43.55,-90.87,0,3,USD,SUMNER 2.7 W,40.9455,-99.5599,8.110140949217499,KLSE,LA CROSSE,43.87,-91.25,WI,46.94584131209516,0,  0,  0, 10, 22,  0,  0, 10, 22,  0,  0,  8, 34
US10daws017,2012-03-16,373226,1840,2012-03-16,1850,CALIFORNIA,6,Heavy Rain,87,SANTA CRUZ,MTR,37.0705,-121.9874,37.0705,-121.9874,15,3,USD,COZAD 0.9 NNE,40.8715,-99.981,0.9398450549140793,KWVI,WATSONVILLE,36.93,-121.78,CA,24.178541870990358,0,NA,NA,NA,NA,NA,NA,NA,NA,NA,NA,NA,NA
US10deue012,2011-02-17,286501,1800,2011-02-17,2200,CALIFORNIA,6,Heavy Rain,75,SAN FRANCISCO,MTR,37.7837,-122.514,37.7137,-122.3592,10,3,USD,CHAPPELL 6.6 WSW,41.0479,-102.5835,3.675560163367052,KSFO,SAN FRANCISCO,37.62,-122.38,CA,21.71106365487139,0,NA,NA,NA,NA,NA,NA,NA,NA,NA,NA,NA,NA
US10dodg005,2011-07-09,333019,1850,2011-07-09,1920,ARIZONA,4,Heavy Rain,1,APACHE,FGZ,33.95,-109.24,33.9803,-109.1107,10,3,USD,SCRIBNER 2.0 E,41.668,-96.628,2.8030979481868377,KSJN,ST. JOHNS AIR PARK,34.52,-109.38,AZ,64.74701981517507,0,NA,NA,NA,NA,NA,NA,NA,NA,NA,NA,NA,NA
US10doug006,2011-06-27,322382,2252,2011-06-27,2252,MINNESOTA,27,Heavy Rain,137,ST. LOUIS,DLH,47.93,-92.57,47.93,-92.57,0,3,USD,OMAHA 2.9 W,41.2658,-95.9927,1.583311042549027,KCQM,COOK,47.83,-92.68,MN,13.83357071139702,5,NA,NA,NA,NA,NA,NA,NA,NA,NA,NA,NA,NA
US10doug025,2010-10-12,265156,1800,2010-10-12,2100,FLORIDA,12,Heavy Rain,87,MONROE,KEY,24.7269,-81.0496,24.7269,-81.0496,0,3,USD,BENNINGTON 0.1 ESE,41.3639,-96.1558,1.365397104173537,KMTH,MARATHON KEY ARPT,24.72,-81.08,FL,3.168428175040242,0,NA,NA,NA,NA,NA,NA,NA,NA,NA,NA,NA,NA
US10fill001,2012-05-24,380339,1300,2012-05-24,1300,MINNESOTA,27,Heavy Rain,53,HENNEPIN,MPX,44.89,-93.31,44.89,-93.31,0,3,USD,FAIRMONT 1.5 E,40.6386,-97.556,2.5107838936185063,KMSP,MINNEAPOLIS,44.88,-93.22,MN,7.185289185397805,1,NA,NA,NA,NA,NA,NA,NA,NA,NA,NA,NA,NA
US10fill002,2012-05-24,380337,1300,2012-05-24,1300,MINNESOTA,27,Heavy Rain,143,SIBLEY,MPX,44.54,-94.15,44.54,-94.15,0,3,USD,FAIRMONT 0.2 SSE,40.634,-97.5841,1.2702667116867397,KGYL,GLENCOE,44.76,-94.08,MN,25.109867381522452,1,NA,NA,NA,NA,NA,NA,NA,NA,NA,NA,NA,NA
US10fill005,2012-05-24,380335,1300,2012-05-24,1300,MINNESOTA,27,Heavy Rain,19,CARVER,MPX,44.73,-93.96,44.73,-93.96,0,3,USD,GENEVA 4.1 W,40.5402,-97.672,1.7519292114376246,KGYL,GLENCOE,44.76,-94.08,MN,10.05830933439936,1,NA,NA,NA,NA,NA,NA,NA,NA,NA,NA,NA,NA
US10fill005,2016-07-31,640948,1100,2016-07-31,1100,NEW JERSEY,34,Heavy Rain,23,MIDDLESEX,PHI,40.44,-74.38,40.44,-74.38,0,3,USD,GENEVA 4.1 W,40.5402,-97.672,1.7519292114376246,KSMQ,SOMERSET,40.62,-74.67,NJ,31.679031826518795,4,  3,  1, 78, 37,  3,  1, 78, 37,  3,  3, 99, 64
US10fill006,2011-11-08,346904,0238,2011-11-08,0253,ARKANSAS,5,Heavy Rain,119,PULASKI,LZK,34.83,-92.25,34.83,-92.25,0,3,USD,TOBIAS 2.1 WSW,40.4067,-97.3739,0.49364421632780986,KLIT,LITTLE ROCK,34.73,-92.23,AR,11.281144380492297,4,NA,NA,NA,NA,NA,NA,NA,NA,NA,NA,NA,NA
US10fill006,2012-11-30,419937,1731,2012-11-30,1731,CALIFORNIA,6,Heavy Rain,53,MONTEREY,MTR,36.19,-121.64,36.19,-121.64,0,3,USD,TOBIAS 2.1 WSW,40.4067,-97.3739,0.49364421632780986,KMRY,MONTEREY,36.58,-121.85,CA,47.318128697888824,0,NA,NA,NA,NA,NA,NA,NA,NA,NA,NA,NA,NA
US10fill006,2015-06-24,576742,1200,2015-06-25,1200,IOWA,19,Heavy Rain,73,GREENE,DMX,42.03,-94.41,42.03,-94.41,0,3,USD,TOBIAS 2.1 WSW,40.4067,-97.3739,0.49364421632780986,KCIN,CARROLL,42.05,-94.78,IA,30.670448125350454,2,  0,  0,  3, 17,  0,  0,  3, 17,  0,  3,  8, 48
US10fill006,2016-07-08,649168,2030,2016-07-08,2110,TEXAS,48,Heavy Rain,43,BREWSTER,MAF,30.4088,-103.7785,30.4088,-103.7785,0,3,USD,TOBIAS 2.1 WSW,40.4067,-97.3739,0.49364421632780986,KE38,ALPINE-CASPARIS,30.38,-103.68,TX,9.986580751226352,0,  0,  0, 15, 14,  0,  0, 15, 14,  0,  0, 19, 23
US10fran001,2010-08-26,257578,1848,2010-08-26,1919,CALIFORNIA,6,Heavy Rain,71,SAN BERNARDINO,SGX,34.05,-116.95,34.05,-116.95,0,3,USD,RIVERTON 3.2 WSW,40.0747,-98.8176,1.0500658876512192,KRIV,MARCH AFB,33.9,-117.25,CA,32.33894876208295,0,NA,NA,NA,NA,NA,NA,NA,NA,NA,NA,NA,NA
US10fran001,2011-07-13,312677,1400,2011-07-13,1400,WYOMING,56,Heavy Rain,21,LARAMIE,CYS,41.14,-104.43,41.14,-104.43,0,3,USD,RIVERTON 3.2 WSW,40.0747,-98.8176,1.0500658876512192,KCYS,CHEYENNE,41.15,-104.82,WY,32.712148256310506,0,NA,NA,NA,NA,NA,NA,NA,NA,NA,NA,NA,NA
US10fran002,2011-09-03,331998,1200,2011-09-06,1200,FLORIDA,12,Heavy Rain,37,FRANKLIN,TAE,29.7333,-85.0333,29.7333,-85.0333,0,3,USD,HILDRETH 4.5 SSE,40.2732,-99.0295,2.445523741366064,KAAF,APALACHICOLA,29.73,-85.02,FL,1.3370997079016553,2,NA,NA,NA,NA,NA,NA,NA,NA,NA,NA,NA,NA
US10fran009,2011-07-22,331731,0210,2011-07-22,0240,NORTH DAKOTA,38,Heavy Rain,57,MERCER,BIS,47.45,-101.92,47.45,-101.92,0,3,USD,UPLAND 5.4 SSE,40.2478,-98.8561,0.39889058434567687,KN60,GARRISON,47.65,-101.38,ND,46.279738851093825,2,NA,NA,NA,NA,NA,NA,NA,NA,NA,NA,NA,NA
US10furn004,2011-07-19,336145,2240,2011-07-19,2240,MINNESOTA,27,Heavy Rain,61,ITASCA,DLH,47.4,-93.52,47.4,-93.52,0,3,USD,BEAVER CITY 6.0 S,40.0502,-99.8189,1.7268629301960865,KGPZ,GRAND RAPIDS,47.22,-93.52,MN,20.037508342788705,0,NA,NA,NA,NA,NA,NA,NA,NA,NA,NA,NA,NA
US10furn004,2016-04-08,622078,0119,2016-04-08,0139,TEXAS,48,Heavy Rain,43,BREWSTER,MAF,30.1889,-103.2809,30.1889,-103.2809,0,3,USD,BEAVER CITY 6.0 S,40.0502,-99.8189,1.7268629301960865,KE38,ALPINE-CASPARIS,30.38,-103.68,TX,43.867888482377914,0,  0,  0,  1,  6,  0,  0,  1,  6,  0,  0,  2, 20
US10furn008,2011-07-12,312224,0035,2011-07-12,0035,WYOMING,56,Heavy Rain,21,LARAMIE,CYS,41.22,-104.7,41.22,-104.7,0,3,USD,BEAVER CITY 4.7 SW,40.0887,-99.892,2.38080564291721,KCYS,CHEYENNE,41.15,-104.82,WY,12.719672120348436,0,NA,NA,NA,NA,NA,NA,NA,NA,NA,NA,NA,NA
US10furn008,2011-07-19,336146,2240,2011-07-19,2240,MINNESOTA,27,Heavy Rain,61,ITASCA,DLH,47.4,-93.52,47.4,-93.52,0,3,USD,BEAVER CITY 4.7 SW,40.0887,-99.892,2.38080564291721,KGPZ,GRAND RAPIDS,47.22,-93.52,MN,20.037508342788705,0,NA,NA,NA,NA,NA,NA,NA,NA,NA,NA,NA,NA
US10furn014,2011-08-29,342269,1200,2011-08-30,1200,NEBRASKA,31,Heavy Rain,1,ADAMS,GID,40.3527,-98.4231,40.3527,-98.4231,0,3,USD,BEAVER CITY 0.4 SE,40.133,-99.8238,1.9624061287981625,KHSI,HASTINGS,40.6,-98.43,NE,27.53550964005015,0,NA,NA,NA,NA,NA,NA,NA,NA,NA,NA,NA,NA
US10furn015,2014-08-11,536093,1200,2014-08-11,2230,MICHIGAN,26,Heavy Rain,53,GOGEBIC,MQT,46.27,-89.17,46.27,-89.17,0,3,USD,ARAPAHOE 4.8 SW,40.2463,-99.9516,8.377680910612414,KLNL,KINGS LAND O LAKES,46.15,-89.21,WI,13.709129416597735,2,  0,  0, 23, 19,  0,  0, 23, 19,  0,  0, 22, 29
US10furn018,2014-09-10,533193,1235,2014-09-10,1235,IOWA,19,Heavy Rain,125,MARION,DMX,41.32,-93.1,41.32,-93.1,0,3,USD,OXFORD 0.2 WNW,40.2499,-99.6375,4.192476166302523,KOXV,KNOXVILLE,41.3,-93.12,IA,2.7845227823296006,2,  0,  2, 38, 40,  0,  2, 38, 40,  2,  2, 64, 53
US10garf007,2010-07-05,254596,1446,2010-07-05,1446,KANSAS,20,Heavy Rain,49,ELK,ICT,37.47,-96.26,37.47,-96.26,0,3,USD,BURWELL 7.2 ESE,41.7223,-99.02,4.349516940538833,KPPF,PARSONS,37.33,-95.52,KS,67.27098184266227,4,NA,NA,NA,NA,NA,NA,NA,NA,NA,NA,NA,NA
US10gosp002,2011-06-21,306424,1300,2011-06-21,1608,LOUISIANA,22,Heavy Rain,31,DE SOTO,SHV,32.03,-93.7,32.03,-93.7,0,3,USD,ARAPAHOE 9.8 NNE,40.4379,-99.8351,0.978761971544626,KSHV,SHREVEPORT,32.47,-93.82,LA,50.26658296430437,1,NA,NA,NA,NA,NA,NA,NA,NA,NA,NA,NA,NA
US10gosp004,2011-10-09,345889,2100,2011-10-10,2100,FLORIDA,12,Heavy Rain,83,MARION,JAX,29.19,-82.13,29.19,-82.13,0,3,USD,ARAPAHOE 6.9 NW,40.3873,-99.973,1.624859554942064,KOCF,OCALA_MUNI,29.17,-82.22,FL,9.026185057438338,3,NA,NA,NA,NA,NA,NA,NA,NA,NA,NA,NA,NA
US10gree004,2013-08-09,464859,1200,2013-08-10,1203,KENTUCKY,21,Heavy Rain,25,BREATHITT,JKL,37.579,-83.38,37.579,-83.38,0,3,USD,SCOTIA 4.0 E,41.4663,-98.6272,0.472964887936739,KJKL,JACKSON,37.6,-83.32,KY,5.78587273556658,1,  2,  5, 76, 56,  2,  5, 76, 56,  3,  4, 82, 60
US10gree004,2013-08-09,464859,1200,2013-08-10,1203,KENTUCKY,21,Heavy Rain,25,BREATHITT,JKL,37.579,-83.38,37.579,-83.38,0,3,USD,SCOTIA 4.0 E,41.4663,-98.6272,0.472964887936739,KJKL,JACKSON,37.6,-83.32,KY,5.78587273556658,1,  2,  5, 76, 56,  2,  5, 76, 56,  3,  4, 82, 60
US10gree004,2013-08-09,464858,1100,2013-08-10,1100,KENTUCKY,21,Heavy Rain,193,PERRY,JKL,37.35,-83.48,37.35,-83.48,0,3,USD,SCOTIA 4.0 E,41.4663,-98.6272,0.472964887936739,KJKL,JACKSON,37.6,-83.32,KY,31.21387355054229,1,  2,  5, 76, 56,  2,  5, 76, 56,  3,  4, 82, 60
US10gree004,2013-08-09,464858,1100,2013-08-10,1100,KENTUCKY,21,Heavy Rain,193,PERRY,JKL,37.35,-83.48,37.35,-83.48,0,3,USD,SCOTIA 4.0 E,41.4663,-98.6272,0.472964887936739,KJKL,JACKSON,37.6,-83.32,KY,31.21387355054229,1,  2,  5, 76, 56,  2,  5, 76, 56,  3,  4, 82, 60
US10gree004,2013-09-24,472266,2100,2013-09-24,2200,FLORIDA,12,Heavy Rain,83,MARION,JAX,29.09,-82.07,29.09,-82.07,0,3,USD,SCOTIA 4.0 E,41.4663,-98.6272,1.3554251149811645,KOCF,OCALA_MUNI,29.17,-82.22,FL,17.0897097738733,2,  3,  4, 65, 42,  3,  4, 65, 42,  4,  4, 78, 60
US10gree007,2011-05-01,312524,0145,2011-05-01,0145,TEXAS,48,Heavy Rain,439,TARRANT,FWD,32.7371,-97.3556,32.7371,-97.3556,8,3,USD,SPALDING 0.2 SW,41.6869,-98.3657,1.147738869989619,KNFW,FORT WORTH NAS,32.77,-97.43,TX,7.869520925310642,0,NA,NA,NA,NA,NA,NA,NA,NA,NA,NA,NA,NA
US10gree011,2011-06-26,315115,0710,2011-06-26,1030,ILLINOIS,17,Heavy Rain,199,WILLIAMSON,PAH,37.648,-89.0991,37.8,-89.03,0,3,USD,SPALDING 7.5 SSW,41.581,-98.3857,3.3218956515267704,KMWA,MARION,37.75,-89,IL,14.32190399554874,0,NA,NA,NA,NA,NA,NA,NA,NA,NA,NA,NA,NA
US10gree011,2012-05-14,385739,1300,2012-05-14,1300,NORTH CAROLINA,37,Heavy Rain,35,CATAWBA,GSP,35.637,-81.226,35.637,-81.226,0,3,USD,SPALDING 7.5 SSW,41.581,-98.3857,3.734193622939896,KIPJ,LINCOLNTON,35.48,-81.16,NC,18.470944946173088,0,NA,NA,NA,NA,NA,NA,NA,NA,NA,NA,NA,NA
US10gree012,2011-10-07,344961,1200,2011-10-08,1200,NEBRASKA,31,Heavy Rain,19,BUFFALO,GID,41.03,-98.93,41.03,-98.93,0,3,USD,WOLBACH 5.0 NW,41.4611,-98.4383,2.7240947043041737,KEAR,KEARNEY,40.73,-99,NE,33.91156268773764,3,NA,NA,NA,NA,NA,NA,NA,NA,NA,NA,NA,NA
US10gree012,2013-09-25,476333,1442,2013-09-26,1442,MONTANA,30,Heavy Rain,57,MADISON,TFX,45.62,-112.63,45.62,-112.63,0,3,USD,WOLBACH 5.0 NW,41.4611,-98.4383,2.1894704079621565,KBTM,BUTTE,45.95,-112.5,MT,38.096383927197586,0,  1,  0, 50, 17,  1,  0, 50, 17,  0,  1, 34, 32
US10hall004,2014-07-30,538487,1000,2014-07-30,1200,KANSAS,20,Heavy Rain,93,KEARNY,DDC,38.21,-101.53,38.21,-101.53,0,3,USD,GRAND ISLAND 5.0 SSW,40.8585,-98.3781,0.9335913745980893,KGCK,GARDEN CITY,37.93,-100.72,KS,77.52742027143525,0,  1,  1, 35, 28,  1,  1, 35, 28,  2,  4, 50, 39
US10hall005,2015-07-09,596744,0700,2015-07-10,0730,CALIFORNIA,6,Heavy Rain,89,SHASTA,STO,41.06,-122.36,41.06,-122.36,0,3,USD,DONIPHAN 3.7 ENE,40.7874,-98.3029,1.4221661319147791,KMHS,MT. SHASTA,41.32,-122.32,CA,29.136391197286134,0,  1,  1, 56, 31,  1,  1, 56, 31,  4,  0, 65, 27
US10hall007,2013-08-03,475469,1345,2013-08-04,1345,KANSAS,20,Heavy Rain,165,RUSH,DDC,38.66,-99.32,38.66,-99.32,0,3,USD,GRAND ISLAND 6.7 NNE,41.018,-98.3042,0.6725384298418683,KHYS,HAYS,38.85,-99.27,KS,21.591485617384496,0,  0,  0, 26, 20,  0,  0, 26, 20,  3,  1, 63, 38
US10hall008,2013-08-04,475470,1407,2013-08-04,1407,KANSAS,20,Heavy Rain,83,HODGEMAN,DDC,38,-99.87,38,-99.87,0,3,USD,WOOD RIVER 0.2 NNE,40.8229,-98.5984,0.3494430048775595,KDDC,DODGE CITY,37.77,-99.97,KS,27.068965841196405,0,  0,  0, 12, 19,  0,  0, 12, 19,  0,  0, 12, 25
US10hall009,2011-12-10,351140,1300,2011-12-10,1500,FLORIDA,12,Heavy Rain,85,MARTIN,MLB,27.24,-80.27,27.24,-80.27,0,3,USD,DONIPHAN 2.3 W,40.7734,-98.4137,0.5978657209796637,KSUA,STUART/WITHAM FIELD,27.18,-80.22,FL,8.3134857532664,0,NA,NA,NA,NA,NA,NA,NA,NA,NA,NA,NA,NA
US10hall009,2014-08-01,540730,0701,2014-08-31,0800,IDAHO,16,Heavy Rain,23,BUTTE,PIH,43.78,-113,43.67,-113.37,3e3,3,USD,DONIPHAN 2.3 W,40.7734,-98.4137,0.4899095928472306,KIDA,IDAHO FALLS,43.52,-112.07,ID,80.30554035470455,1,  0,  0, 16, 14,  0,  0, 16, 14,  0,  1, 36, 34
US10hall009,2014-09-29,538326,1400,2014-09-30,1400,WYOMING,56,Heavy Rain,15,GOSHEN,CYS,42.4,-104.56,42.4,-104.56,0,3,USD,DONIPHAN 2.3 W,40.7734,-98.4137,0.5978657209796637,KTOR,TORRINGTON AIRPORT,42.06,-104.15,WY,50.74058211487784,0,  0,  0, 23, 24,  0,  0, 23, 24,  0,  0, 19, 27
US10hall016,2013-08-04,475472,1440,2013-08-04,1440,KANSAS,20,Heavy Rain,83,HODGEMAN,DDC,38.06,-99.63,38.06,-99.63,0,3,USD,GRAND ISLAND 0.8 NNE,40.9357,-98.3378,0.4845972474617903,KDDC,DODGE CITY,37.77,-99.97,KS,43.974568300224725,0,  0,  0, 12, 19,  0,  0, 12, 19,  0,  0, 12, 25
US10hami003,2013-03-23,438884,0400,2013-03-23,0400,FLORIDA,12,Heavy Rain,19,CLAY,JAX,30.13,-81.87,30.13,-81.87,0,3,USD,HAMPTON 2.6 ESE,40.8598,-97.8425,0.8060236238988174,KVQQ,JACKSONVILLE NAS,30.22,-81.88,FL,10.064867278545234,0,NA,NA,NA,NA,NA,NA,NA,NA,NA,NA,NA,NA
US10hami011,2013-10-02,477576,0200,2013-10-03,1100,NEBRASKA,31,Heavy Rain,1,ADAMS,GID,40.61,-98.48,40.61,-98.48,0,3,USD,GILTNER 1.1 NW,40.7849,-98.169,0.5513221694625481,KHSI,HASTINGS,40.6,-98.43,NE,4.3699339799172225,0,  0,  0,  1, 12,  0,  0,  1, 12,  0,  0,  8,  7
US10hami012,2011-07-28,332724,1200,2011-07-28,1200,ILLINOIS,17,Heavy Rain,85,JO DAVIESS,DVN,42.41,-90.39,42.41,-90.39,0,3,USD,HORDVILLE 3.5 SE,41.0348,-97.8459,1.1827578539135357,KDBQ,DUBUQUE,42.4,-90.7,IA,25.50564577556793,2,NA,NA,NA,NA,NA,NA,NA,NA,NA,NA,NA,NA
US10hami012,2014-08-01,540735,0701,2014-08-31,0800,IDAHO,16,Heavy Rain,65,MADISON,PIH,43.82,-111.67,43.73,-111.82,2e3,3,USD,HORDVILLE 3.5 SE,41.0348,-97.8459,1.724785041794067,KRXE,REXBURG,43.83,-111.81,ID,11.298700249940362,0,  0,  0, 17, 14,  0,  0, 17, 14,  1,  1, 37, 35
US10harl004,2011-08-08,335015,2304,2011-08-08,2304,ILLINOIS,17,Heavy Rain,177,STEPHENSON,DVN,42.33,-89.58,42.33,-89.58,0,3,USD,ORLEANS 6.2 WNW,40.1765,-99.5579,1.4992796952634657,KFEP,ALBERTUS AIRPORT,42.25,-89.58,IL,8.905559263462038,2,NA,NA,NA,NA,NA,NA,NA,NA,NA,NA,NA,NA
US10harl008,2011-07-12,338355,1800,2011-07-12,1900,LOUISIANA,22,Heavy Rain,51,JEFFERSON,LIX,29.9,-90.08,29.9,-90.08,0,3,USD,ALMA 0.1 NNW,40.0983,-99.3626,1.0882544179779952,KNBG,NEW ORLEANS NAS,29.83,-90.02,LA,9.709290285638241,0,NA,NA,NA,NA,NA,NA,NA,NA,NA,NA,NA,NA
US10harl009,2011-07-22,331727,0100,2011-07-22,0130,NORTH DAKOTA,38,Heavy Rain,53,MCKENZIE,BIS,47.6,-103.26,47.6,-103.26,0,3,USD,REPUBLICAN CITY 1.7 NW,40.1176,-99.2433,0.04798173044906349,KISN,WILLISTON,48.18,-103.63,ND,70.22432779243654,3,NA,NA,NA,NA,NA,NA,NA,NA,NA,NA,NA,NA
US10harl009,2015-09-06,601737,0507,2015-09-07,0645,WISCONSIN,55,Heavy Rain,141,WOOD,GRB,44.63,-90.18,44.63,-90.18,0,3,USD,REPUBLICAN CITY 1.7 NW,40.1176,-99.2433,0.629119993021499,KMFI,MARSHFIELD,44.63,-90.18,WI,0,0,  0,  0,  9, 10,  0,  0,  9, 10,  1,  3, 55, 51
US10harl010,2014-05-15,508508,1250,2014-05-15,1250,FLORIDA,12,Heavy Rain,121,SUWANNEE,JAX,30.29,-82.99,30.29,-82.99,0,3,USD,STAMFORD 1.9 E,40.1273,-99.5572,1.3184332053225267,K40J,PERRY FOLEY ARPT.,30.08,-83.57,FL,60.50872034093729,0,  3,  0, 63, 32,  3,  0, 63, 32,  2,  0, 67, 35
US10harl014,2011-09-03,331988,1200,2011-09-06,1200,FLORIDA,12,Heavy Rain,73,LEON,TAE,30.3717,-84.2124,30.3717,-84.2124,0,3,USD,ORLEANS 0.2 E,40.129,-99.4512,0.1509067221506593,KTLH,TALLAHASSEE,30.38,-84.37,FL,15.163812579621908,0,NA,NA,NA,NA,NA,NA,NA,NA,NA,NA,NA,NA
US10haye003,2011-04-12,293920,2002,2011-04-12,2102,KENTUCKY,21,Heavy Rain,77,GALLATIN,ILN,38.6733,-84.9004,38.6733,-84.9004,1,3,USD,HAYES CENTER 0.0 WSW,40.5106,-101.0202,0.06882611948613356,KCVG,COVINGTON,39.05,-84.67,KY,46.446826512893104,0,NA,NA,NA,NA,NA,NA,NA,NA,NA,NA,NA,NA
US10haye003,2011-04-12,293920,2002,2011-04-12,2102,KENTUCKY,21,Heavy Rain,77,GALLATIN,ILN,38.6733,-84.9004,38.6733,-84.9004,1,3,USD,HAYES CENTER 0.0 WSW,40.5106,-101.0202,0.06882611948613356,KCVG,COVINGTON,39.05,-84.67,KY,46.446826512893104,0,NA,NA,NA,NA,NA,NA,NA,NA,NA,NA,NA,NA
US10haye003,2011-04-12,293905,1100,2011-04-12,1300,KENTUCKY,21,Heavy Rain,187,OWEN,ILN,38.4765,-84.8017,38.4584,-84.7385,1,3,USD,HAYES CENTER 0.0 WSW,40.5106,-101.0202,0.06882611948613356,KFFT,FRANKFORT,38.18,-84.9,KY,34.10424775313486,0,NA,NA,NA,NA,NA,NA,NA,NA,NA,NA,NA,NA
US10haye003,2011-04-12,293905,1100,2011-04-12,1300,KENTUCKY,21,Heavy Rain,187,OWEN,ILN,38.4765,-84.8017,38.4584,-84.7385,1,3,USD,HAYES CENTER 0.0 WSW,40.5106,-101.0202,0.06882611948613356,KFFT,FRANKFORT,38.18,-84.9,KY,34.10424775313486,0,NA,NA,NA,NA,NA,NA,NA,NA,NA,NA,NA,NA
US10haye003,2011-04-19,293985,2006,2011-04-19,2106,INDIANA,18,Heavy Rain,177,WAYNE,ILN,39.83,-84.9,39.83,-84.9,20,3,USD,HAYES CENTER 0.0 WSW,40.5106,-101.0202,3.3991749192365126,KDAY,DAYTON,39.9,-84.2,OH,60.316135638544985,1,NA,NA,NA,NA,NA,NA,NA,NA,NA,NA,NA,NA
US10hook001,2011-05-24,313684,0349,2011-05-24,0349,KANSAS,20,Heavy Rain,141,OSBORNE,GID,39.3072,-98.8589,39.3072,-98.8589,0,3,USD,MULLEN 0.2 ENE,42.0437,-101.0391,0.4180802901025641,KRSL,RUSSELL,38.87,-98.82,KS,48.7847999126287,3,NA,NA,NA,NA,NA,NA,NA,NA,NA,NA,NA,NA
US10howa001,2013-08-04,475473,1455,2013-08-04,1455,KANSAS,20,Heavy Rain,57,FORD,DDC,37.9,-99.63,37.9,-99.63,0,3,USD,ST. PAUL 0.5 ENE,41.2185,-98.4512,3.3388460872345465,KDDC,DODGE CITY,37.77,-99.97,KS,33.21086008584369,0,  0,  0, 12, 19,  0,  0, 12, 19,  0,  0, 12, 25
US10howa002,2013-07-31,467133,2330,2013-07-31,0300,OKLAHOMA,40,Heavy Rain,7,BEAVER,AMA,36.7257,-100.8222,36.7058,-100.8162,0,3,USD,ELBA 2.5 W,41.2915,-98.6149,5.069007215585163,KPYX,PERRYTON/OCHILTREE,36.41,-100.75,TX,35.731480128901765,0,  0,  0,  6,  7,  0,  0,  6,  7,  0,  0, 29, 24
US10howa005,2016-07-11,651895,1000,2016-07-11,1800,MINNESOTA,27,Heavy Rain,145,STEARNS,MPX,45.64,-94.21,45.64,-94.21,0,3,USD,DANNEBROG 0.4 WNW,41.122,-98.5533,0.3547800710276988,KSTC,ST. CLOUD,45.55,-94.07,MN,14.808615485216702,0,  1,  0, 44, 16,  1,  0, 44, 16,  4,  0, 75, 36
US10lanc017,2010-04-30,238880,0300,2010-04-30,0400,ARKANSAS,5,Heavy Rain,121,RANDOLPH,MEG,36.2363,-91.2516,36.2363,-91.2516,0,3,USD,BENNET 0.9 S,40.6667,-96.5067,1.5048508112136805,KARG,WALNUT RIDGE,36.13,-90.92,AR,32.058031681957026,5,NA,NA,NA,NA,NA,NA,NA,NA,NA,NA,NA,NA
US10linc054,2010-11-25,266594,2000,2010-11-25,2200,ILLINOIS,17,Heavy Rain,47,EDWARDS,PAH,38.277,-88.0829,38.5825,-88.0884,0,3,USD,NORTH PLATTE 1.3 NNW,41.1426,-100.7725,1.4166128381042593,KCUL,CARMI MUNI ARPT,38.09,-88.12,IL,21.06834636921942,0,NA,NA,NA,NA,NA,NA,NA,NA,NA,NA,NA,NA
US10loga002,2012-05-30,383682,1715,2012-05-30,1715,NORTH CAROLINA,37,Heavy Rain,49,CRAVEN,MHX,34.88,-76.94,34.88,-76.94,0,3,USD,STAPLETON 9.1 NNW,41.6089,-100.5509,3.4025914390146896,KNKT,CHERRY PT. MCAS,34.85,-76.88,NC,6.417643409750027,0,NA,NA,NA,NA,NA,NA,NA,NA,NA,NA,NA,NA
US10merr006,2011-07-12,331099,2100,2011-07-12,2236,IDAHO,16,Heavy Rain,59,LEMHI,MSO,44.6934,-113.3422,44.6934,-113.3422,0,3,USD,CENTRAL CITY 6.8 NNE,41.2047,-97.9454,0.789534228204262,KSMN,SALMON,45.12,-113.88,ID,63.66363121881595,0,NA,NA,NA,NA,NA,NA,NA,NA,NA,NA,NA,NA
US10merr009,2013-10-02,477578,0500,2013-10-03,1200,NEBRASKA,31,Heavy Rain,169,THAYER,GID,40.14,-97.72,40.14,-97.72,0,3,USD,ST. LIBORY 4.0 ENE,41.102,-98.2847,0.45227224557647855,KHJH,HEBRON MUNI ARPT,40.15,-97.59,NE,11.118129712781274,0,  0,  0,  1, 13,  0,  0,  1, 13,  0,  0,  7,  8
US10merr015,2013-08-04,475468,0827,2013-08-04,0827,KANSAS,20,Heavy Rain,83,HODGEMAN,DDC,38.08,-99.89,38.08,-99.89,0,3,USD,CENTRAL CITY 1.0 NNE,41.1146,-97.9952,2.1009265990743633,KDDC,DODGE CITY,37.77,-99.97,KS,35.21678759643234,0,  0,  0, 12, 19,  0,  0, 12, 19,  0,  0, 12, 25
US10morr003,2014-06-26,515134,1200,2014-06-27,1200,IOWA,19,Heavy Rain,153,POLK,DMX,41.74,-93.72,41.74,-93.72,0,3,USD,BAYARD 13.5 NNE,41.9386,-103.2463,6.188298549215198,KIKV,ANKENY,41.69,-93.57,IA,13.650686381534356,0,  0,  1, 17, 36,  0,  1, 17, 36,  0,  1, 33, 45
US10morr007,2014-06-16,520302,0530,2014-06-17,1030,MINNESOTA,27,Heavy Rain,105,NOBLES,FSD,43.65,-95.47,43.65,-95.47,0,3,USD,BROADWATER 8.4 S,41.4759,-102.8713,7.330039824641134,KOTG,WORTHINGTON,43.65,-95.58,MN,8.860215482674649,0,  0,  0, 37, 24,  0,  0, 37, 24,  5,  4,100, 61
US10morr007,2014-06-26,514578,1200,2014-06-26,1830,IOWA,19,Heavy Rain,153,POLK,DMX,41.68,-93.75,41.68,-93.75,0,3,USD,BROADWATER 8.4 S,41.4759,-102.8713,2.000078807435018,KIKV,ANKENY,41.69,-93.57,IA,15.005603484892271,0,  0,  1, 17, 36,  0,  1, 17, 36,  0,  1, 33, 45
US10nanc001,2014-09-29,538325,1400,2014-09-30,1400,WYOMING,56,Heavy Rain,15,GOSHEN,CYS,42.06,-104.18,42.06,-104.18,0,3,USD,GENOA 2.7 WSW,41.4246,-97.7717,1.3875584226255953,KTOR,TORRINGTON AIRPORT,42.06,-104.15,WY,2.4794536467891604,0,  0,  0, 23, 24,  0,  0, 23, 24,  0,  0, 19, 27
US10nanc006,2013-07-10,460353,2303,2013-07-10,2303,PENNSYLVANIA,42,Heavy Rain,65,JEFFERSON,PBZ,40.94,-78.98,40.94,-78.98,0,3,USD,GENOA 7.5 WNW,41.4677,-97.8733,2.7622400903117037,KDUJ,DUBOIS,41.18,-78.9,PA,27.547626551968836,0,  1,  2, 53, 45,  1,  2, 53, 45,  2,  1, 69, 53
US10nanc006,2014-07-30,538488,1500,2014-07-30,1700,KANSAS,20,Heavy Rain,7,BARBER,DDC,37.47,-98.93,37.47,-98.93,0,3,USD,GENOA 7.5 WNW,41.4677,-97.8733,2.7622400903117037,KPTT,PRATT MUNI ARPT,37.7,-98.75,KS,30.1275748334149,0,  0,  0, 16, 18,  0,  0, 16, 18,  0,  3, 31, 33
US10nuck001,2012-06-18,392229,2245,2012-06-18,2319,WISCONSIN,55,Heavy Rain,139,WINNEBAGO,GRB,44.1696,-88.4637,44.1696,-88.4637,0,3,USD,LAWRENCE 0.1 W,40.2922,-98.2614,1.1332326656237102,KATW,APPLETON,44.27,-88.52,WI,12.045242082681009,0,NA,NA,NA,NA,NA,NA,NA,NA,NA,NA,NA,NA
US10nuck001,2015-04-24,573711,0200,2015-04-25,1541,CALIFORNIA,6,Heavy Rain,109,TUOLUMNE,STO,37.99,-120.28,37.99,-120.28,0,3,USD,LAWRENCE 0.1 W,40.2922,-98.2614,1.1332326656237102,KMOD,MODESTO,37.63,-120.95,CA,71.26088910588739,0,  0,  0, 12, 10,  0,  0, 12, 10,  0,  1, 18, 42
US10nuck002,2013-08-09,464856,1100,2013-08-10,1100,KENTUCKY,21,Heavy Rain,69,FLEMING,JKL,38.449,-83.73,38.449,-83.73,0,3,USD,NORA 1.5 N,40.1828,-97.9717,0.3432107710516976,KLEX,LEXINGTON,38.03,-84.6,KY,89.2282400182112,0,  2,  4, 60, 51,  2,  4, 60, 51,  4,  4, 98, 66
US10nuck003,2012-11-30,419938,1745,2012-11-30,1745,CALIFORNIA,6,Heavy Rain,85,SANTA CLARA,MTR,37.16,-121.9,37.16,-121.9,0,3,USD,RUSKIN 3.4 W,40.1383,-97.9337,1.4270718973548973,KRHV,SAN JOSE,37.33,-121.82,CA,20.208609539143207,0,NA,NA,NA,NA,NA,NA,NA,NA,NA,NA,NA,NA
US10nuck003,2013-08-01,475210,0000,2013-08-02,1200,NEBRASKA,31,Heavy Rain,47,DAWSON,GID,40.8063,-99.97,40.8063,-99.97,0,3,USD,RUSKIN 3.4 W,40.1383,-97.9337,1.1798296222561064,KLXN,LEXINGTON,40.8,-99.76,NE,17.70939164618469,0,  0,  0, 14, 21,  0,  0, 14, 21,  0,  2, 30, 43
US10nuck005,2012-03-14,373297,0800,2012-03-16,1900,CALIFORNIA,6,Heavy Rain,81,SAN MATEO,MTR,37.63,-122.45,37.63,-122.45,50,3,USD,SUPERIOR 6.5 NE,40.1042,-98.0117,3.016214430056891,KSFO,SAN FRANCISCO,37.62,-122.38,CA,6.271324189489024,0,NA,NA,NA,NA,NA,NA,NA,NA,NA,NA,NA,NA
US10nuck005,2013-08-09,464860,1255,2013-08-10,1255,KENTUCKY,21,Heavy Rain,71,FLOYD,JKL,37.33,-82.73,37.33,-82.73,0,3,USD,SUPERIOR 6.5 NE,40.1042,-98.0117,3.2631949432590743,KLNP,WISE/LONESOME_PINE,36.98,-82.53,VA,42.81221183699606,0,  3,  5, 84, 55,  3,  5, 84, 55,  2,  3, 70, 58
US10nuck011,2011-12-20,352023,2100,2011-12-21,1400,FLORIDA,12,Heavy Rain,131,WALTON,TAE,30.5631,-86.0298,30.5631,-86.0298,0,3,USD,LAWRENCE 6.7 SSE,40.2049,-98.2053,1.1921574583137586,KDTS,DESTIN,30.4,-86.47,FL,45.96781431984961,0,NA,NA,NA,NA,NA,NA,NA,NA,NA,NA,NA,NA
US10nuck014,2012-07-26,391479,2210,2012-07-26,2230,MISSOURI,29,Heavy Rain,223,WAYNE,PAH,37.13,-90.47,37.13,-90.47,0,3,USD,GUIDE ROCK 7.7 ESE,40.0257,-98.1994,0.932311445327413,KPOF,POPLAR BLUFF,36.77,-90.32,MO,42.238326178758136,2,NA,NA,NA,NA,NA,NA,NA,NA,NA,NA,NA,NA
US10nuck014,2015-07-07,588646,1000,2015-07-07,1520,INDIANA,18,Heavy Rain,173,WARRICK,PAH,38.08,-87.12,38.08,-87.12,0,3,USD,GUIDE ROCK 7.7 ESE,40.0257,-98.1994,4.340103914624421,KHNB,HUNTINGBURG,38.25,-86.95,IN,24.073059974387437,0,  0,  0,  6, 19,  0,  0,  6, 19,  0,  0,  6, 17
US10nuck017,2013-08-03,457786,1240,2013-08-03,1240,MISSOURI,29,Heavy Rain,229,WRIGHT,SGF,37.25,-92.51,37.25,-92.51,0,3,USD,HARDY 4.3 E,40.0167,-97.8457,0.44711669448695235,KTBN,FT LEONARD WOOD,37.75,-92.15,MO,64.10011196819286,0,  0,  0, 21, 29,  0,  0, 21, 29,  0,  0, 14, 23
US10nuck017,2015-06-11,576239,1230,2015-06-12,1230,IOWA,19,Heavy Rain,157,POWESHIEK,DMX,41.75,-92.71,41.75,-92.71,0,3,USD,HARDY 4.3 E,40.0167,-97.8457,0.8267613193557778,KTNU,NEWTON_MUNI,41.68,-93.02,IA,26.912544645660887,5,  0,  0, 13, 17,  0,  0, 13, 17,  0,  3, 20, 55
US10nuck020,2012-06-16,377949,2140,2012-06-16,2300,INDIANA,18,Heavy Rain,19,CLARK,LMK,38.538,-85.7438,38.538,-85.7438,0,3,USD,DEWEESE 4.8 SSE,40.2859,-98.1236,2.0530106041069964,KLOU,BOWMAN FIELD ARPT,38.23,-85.67,KY,34.88592410192342,2,NA,NA,NA,NA,NA,NA,NA,NA,NA,NA,NA,NA
US10nuck021,2012-06-14,391139,0130,2012-06-15,1300,KANSAS,20,Heavy Rain,123,MITCHELL,GID,39.4685,-97.983,39.4685,-97.983,0,3,USD,DEWEESE 3.2 W,40.3505,-98.1999,1.0945813574589114,KCNK,CONCORDIA,39.55,-97.65,KS,30.00434617943199,0,NA,NA,NA,NA,NA,NA,NA,NA,NA,NA,NA,NA
US10nuck021,2013-09-01,475104,2000,2013-09-01,2100,FLORIDA,12,Heavy Rain,103,PINELLAS,TBW,27.9162,-82.7297,27.9162,-82.7297,0,3,USD,DEWEESE 3.2 W,40.3505,-98.1999,5.076334642357171,KPIE,ST PETERSBURG,27.92,-82.68,FL,4.9069521908147005,3,  0,  0, 21, 26,  0,  0, 21, 26,  0,  0, 34, 40
US10nuck024,2012-06-20,392684,2300,2012-06-20,0030,WISCONSIN,55,Heavy Rain,85,ONEIDA,GRB,45.87,-89.7,45.87,-89.7,0,3,USD,LAWRENCE 3.5 ENE,40.3206,-98.2048,0.4519069112929962,KARV,ARBOR VITAE,45.9,-89.7,WI,3.339584723798707,0,NA,NA,NA,NA,NA,NA,NA,NA,NA,NA,NA,NA
US10nuck026,2012-07-14,391844,1820,2012-07-14,1930,INDIANA,18,Heavy Rain,147,SPENCER,PAH,37.88,-87.05,37.88,-87.05,0,3,USD,NELSON 0.3 S,40.1974,-98.0686,0.3126036723115686,KOWB,OWENSBORO,37.74,-87.17,KY,18.821923395690355,0,NA,NA,NA,NA,NA,NA,NA,NA,NA,NA,NA,NA
US10nuck027,2011-11-01,350478,0600,2011-11-30,0559,ARKANSAS,5,Heavy Rain,141,VAN BUREN,LZK,35.4067,-92.4064,35.4067,-92.4064,0,3,USD,NELSON 6.3 N,40.2926,-98.0722,0.6713826577508557,KLRF,LITTLE ROCK AFB,34.92,-92.15,AR,58.990166417685835,0,NA,NA,NA,NA,NA,NA,NA,NA,NA,NA,NA,NA
US10nuck027,2012-05-06,370203,1300,2012-05-06,1300,MINNESOTA,27,Heavy Rain,139,SCOTT,MPX,44.7,-93.63,44.7,-93.63,0,3,USD,NELSON 6.3 N,40.2926,-98.0722,0.6713826577508557,KFCM,MINNEAPOLIS,44.83,-93.45,MN,20.29340990897868,0,NA,NA,NA,NA,NA,NA,NA,NA,NA,NA,NA,NA
US10nuck027,2012-07-19,391295,0300,2012-07-19,0320,KENTUCKY,21,Heavy Rain,221,TRIGG,PAH,36.8291,-87.8712,36.8291,-87.8712,0,3,USD,NELSON 6.3 N,40.2926,-98.0722,0.3440934840849071,KHOP,FT. CAMBELL AAF,36.67,-87.5,KY,37.548752778870686,0,NA,NA,NA,NA,NA,NA,NA,NA,NA,NA,NA,NA
US10nuck027,2013-08-12,474889,0400,2013-08-12,0400,MONTANA,30,Heavy Rain,41,HILL,TFX,48.4832,-110.55,48.4832,-110.55,0,3,USD,NELSON 6.3 N,40.2926,-98.0722,0.3440934840849071,KHVR,HAVRE,48.55,-109.77,MT,57.99437541533074,6,  0,  0, 12, 13,  0,  0, 12, 13,  0,  0, 29, 31
US10nuck030,2015-06-24,576743,1200,2015-06-25,1200,IOWA,19,Heavy Rain,49,DALLAS,DMX,41.84,-94.13,41.84,-94.13,0,3,USD,RUSKIN 0.4 ESE,40.1427,-97.8627,1.0217098237016176,KBNW,BOONE_MUNI,42.05,-93.85,IA,32.9235086040113,1,  0,  0,  2, 18,  0,  0,  2, 18,  0,  4, 10, 54
US10phel005,2011-06-02,307626,0241,2011-06-02,0311,NORTH DAKOTA,38,Heavy Rain,9,BOTTINEAU,BIS,48.83,-100.44,48.83,-100.44,0,3,USD,FUNK 6.7 NNW,40.5542,-99.2919,0.9403189063335795,KMIB,MINOT AFB,48.42,-101.35,ND,81.03305966460928,5,NA,NA,NA,NA,NA,NA,NA,NA,NA,NA,NA,NA
US10phel011,2011-08-08,331671,2007,2011-08-08,2027,IOWA,19,Heavy Rain,103,JOHNSON,DVN,41.71,-91.6,41.71,-91.6,0,3,USD,BERTRAND 6.1 SE,40.4517,-99.5719,2.680907268090135,KIOW,IOWA CITY,41.63,-91.55,IA,9.828301246676029,0,NA,NA,NA,NA,NA,NA,NA,NA,NA,NA,NA,NA
US10phel014,2011-07-06,334422,1300,2011-07-07,1300,NEBRASKA,31,Heavy Rain,121,MERRICK,GID,41.2109,-97.95,41.2109,-97.95,0,3,USD,LOOMIS 0.2 SW,40.4763,-99.5096,0.9710998232587372,KAUH,AURORA,40.9,-97.98,NE,34.70072821069095,5,NA,NA,NA,NA,NA,NA,NA,NA,NA,NA,NA,NA
US10polk001,2014-06-01,509712,1745,2014-06-01,2305,IOWA,19,Heavy Rain,109,KOSSUTH,DMX,43.16,-94.36,43.16,-94.36,0,3,USD,STROMSBURG 0.9 E,41.113,-97.5828,0.7961920905198595,KAXA,ALGONA,43.08,-94.27,IA,11.523360667294806,2,  4,  2, 84, 40,  4,  2, 84, 40,  3,  2, 78, 51
US10polk012,2014-06-05,515836,0525,2014-06-05,0525,KENTUCKY,21,Heavy Rain,115,JOHNSON,JKL,37.83,-82.84,37.83,-82.84,0,3,USD,OSCEOLA 4.5 NE,41.2359,-97.5051,2.1990670277366764,KJKL,JACKSON,37.6,-83.32,KY,49.418727788860515,0,  1,  1, 54, 38,  1,  1, 54, 38,  0,  1, 38, 47
US10polk013,2011-05-19,318187,1200,2011-05-20,1200,KANSAS,20,Heavy Rain,123,MITCHELL,GID,39.4685,-97.983,39.4685,-97.983,0,3,USD,OSCEOLA 6.9 N,41.2372,-97.5614,1.9403858291632408,KCNK,CONCORDIA,39.55,-97.65,KS,30.00434617943199,0,NA,NA,NA,NA,NA,NA,NA,NA,NA,NA,NA,NA
US10polk013,2014-08-19,536127,1915,2014-08-19,2015,MICHIGAN,26,Heavy Rain,103,MARQUETTE,MQT,46.5318,-87.5499,46.5318,-87.5499,0,3,USD,OSCEOLA 6.9 N,41.2372,-97.5614,4.853607268548952,KSAW,GWINN,46.35,-87.4,MI,23.276518345292757,0,  1,  0, 49, 10,  1,  0, 49, 10,  0,  0, 41, 19
US10polk014,2011-06-18,312199,2150,2011-06-18,2250,NORTH DAKOTA,38,Heavy Rain,57,MERCER,BIS,47.05,-101.82,47.05,-101.82,0,3,USD,SHELBY 1.7 WNW,41.2071,-97.4514,1.2684136637701373,KN60,GARRISON,47.65,-101.38,ND,74.58110404396668,4,NA,NA,NA,NA,NA,NA,NA,NA,NA,NA,NA,NA
US10polk019,2014-08-16,535925,0500,2014-08-17,1300,ILLINOIS,17,Heavy Rain,81,JEFFERSON,PAH,38.43,-88.93,38.32,-88.8078,0,3,USD,GRESHAM 6.9 NW,41.1065,-97.484,6.010708309303227,KMVN,MT. VERNON,38.32,-88.87,IL,13.317719118148597,0,  0,  0,  2, 13,  0,  0,  2, 13,  0,  0, 10, 24
US10polk020,2016-07-01,645178,1300,2016-07-01,1900,SOUTH DAKOTA,46,Heavy Rain,47,FALL RIVER,UNR,43.4,-103.27,43.4,-103.27,0,3,USD,OSCEOLA 7.1 W,41.1959,-97.6828,1.7744039278509778,KCUT,CUSTER,43.73,-103.62,SD,46.3303151627776,0,  0,  1, 16, 27,  0,  1, 16, 27,  2,  0, 66, 21
US10rich010,2010-05-03,235365,0600,2010-05-03,2200,FLORIDA,12,Heavy Rain,131,WALTON,TAE,30.51,-86.28,30.51,-86.28,0,3,USD,FALLS CITY 1.5 E,40.0582,-95.5736,1.5567522421322328,KDTS,DESTIN,30.4,-86.47,FL,21.962852481795217,0,NA,NA,NA,NA,NA,NA,NA,NA,NA,NA,NA,NA
US10sali002,2011-05-30,309165,1300,2011-05-30,1750,MICHIGAN,26,Heavy Rain,131,ONTONAGON,MQT,46.81,-89.22,46.81,-89.22,0,3,USD,MILFORD 5.9 SSE,40.6908,-97.0265,2.22972663118651,KCMX,HANCOCK,47.17,-88.5,MI,67.78654616539808,0,NA,NA,NA,NA,NA,NA,NA,NA,NA,NA,NA,NA
US10scot006,2012-03-17,371765,2200,2012-03-17,0600,CALIFORNIA,6,Heavy Rain,71,SAN BERNARDINO,SGX,34.2355,-117.18,34.2355,-117.18,0,3,USD,MORRILL 5.7 SSW,41.8863,-103.9672,2.304975659235394,KRIV,MARCH AFB,33.9,-117.25,CA,37.90140764930352,0,NA,NA,NA,NA,NA,NA,NA,NA,NA,NA,NA,NA
US10scot014,2014-03-01,508174,1900,2014-03-01,2000,ARIZONA,4,Heavy Rain,3,COCHISE,TWC,31.4497,-110.9714,31.4497,-110.9714,15,3,USD,GERING 0.4 E,41.824,-103.6533,0.8679324746909015,KOLS,NOGALES INTERNATNL,31.42,-110.85,AZ,11.995385838931021,2,  0,  0,  5,  3,  0,  0,  5,  3,  0,  0,  6,  7
US10scot020,2014-04-27,503162,1834,2014-04-27,1834,IOWA,19,Heavy Rain,161,SAC,DMX,42.46,-95.02,42.46,-95.02,0,3,USD,SCOTTSBLUFF 6.6 NE,41.935,-103.5792,0.794754803098543,KSLB,STORM_LAKE,42.6,-95.23,IA,23.230520372290634,0,  0,  0, 12, 22,  0,  0, 12, 22,  0,  0, 22, 17
US10shem003,2011-09-05,341158,0900,2011-09-05,1630,MISSISSIPPI,28,Heavy Rain,73,LAMAR,JAN,31.17,-89.49,31.17,-89.49,0,3,USD,ROCKVILLE 2.2 NW,41.1426,-98.8593,1.5170145930906398,KHBG,HATTIESBURG,31.27,-89.26,MS,24.562987640518614,0,NA,NA,NA,NA,NA,NA,NA,NA,NA,NA,NA,NA
US10shem003,2013-09-16,477074,2000,2013-09-16,0000,TEXAS,48,Heavy Rain,381,RANDALL,AMA,35.1777,-101.9047,35.1126,-101.9078,0,3,USD,ROCKVILLE 2.2 NW,41.1426,-98.8593,1.5170145930906398,KAMA,AMARILLO,35.23,-101.7,TX,19.50847593129151,1,  0,  0, 11, 16,  0,  0, 11, 16,  0,  1, 24, 32
US10shem008,2013-08-04,475474,1505,2013-08-04,1505,KANSAS,20,Heavy Rain,47,EDWARDS,DDC,38.04,-99.48,38.04,-99.48,0,3,USD,LOUP CITY 0.3 NW,41.2787,-98.9704,0.8151266055480988,KDDC,DODGE CITY,37.77,-99.97,KS,52.49486738849007,0,  0,  0, 12, 19,  0,  0, 12, 19,  0,  0, 12, 25
US10shem009,2013-08-03,475475,1620,2013-08-04,1620,KANSAS,20,Heavy Rain,47,EDWARDS,DDC,37.94,-99.08,37.94,-99.08,0,3,USD,LOUP CITY 2.3 W,41.2754,-99.0104,0.8484068079631887,KPTT,PRATT MUNI ARPT,37.7,-98.75,KS,39.44450176219781,0,  0,  0, 24, 17,  0,  0, 24, 17,  2,  0, 51, 24
US10sher031,2013-10-31,481166,1254,2013-10-31,1424,TEXAS,48,Heavy Rain,471,WALKER,HGX,30.653,-95.62,30.653,-95.62,0,3,USD,GORDON 8.0 ESE,42.7314,-102.0857,24.900918545645133,KUTS,HUNTSVILLE,30.75,-95.58,TX,11.45667194197505,0,  3,  0, 76, 22,  3,  0, 76, 22,  4,  6, 81, 53
US10siou005,2014-06-26,514590,1915,2014-06-26,1915,IOWA,19,Heavy Rain,153,POLK,DMX,41.69,-93.74,41.69,-93.74,0,3,USD,HARRISON 23.7 SSE,42.3579,-103.7547,4.77217907367,KIKV,ANKENY,41.69,-93.57,IA,14.131809675570569,1,  0,  1, 17, 36,  0,  1, 17, 36,  0,  1, 33, 45
US10thay003,2015-07-26,597595,1200,2015-07-27,1200,KANSAS,20,Heavy Rain,135,NESS,DDC,38.41,-100.01,38.41,-100.01,0,3,USD,CARLETON 2.2 E,40.3056,-97.637,0.7486034452733031,KDDC,DODGE CITY,37.77,-99.97,KS,71.33061363920008,2,  0,  0,  8, 19,  0,  0,  8, 19,  1,  0, 45, 15
US10thay003,2016-05-27,627474,1300,2016-05-28,1300,NEBRASKA,31,Heavy Rain,169,THAYER,GID,40.34,-97.57,40.34,-97.57,0,3,USD,CARLETON 2.2 E,40.3056,-97.637,0.7486034452733031,KHJH,HEBRON MUNI ARPT,40.15,-97.59,NE,21.2188625291086,5,  2,  0, 54, 21,  2,  0, 54, 21,  1,  3, 59, 38
US10thay006,2012-05-06,370201,1215,2012-05-06,1215,MINNESOTA,27,Heavy Rain,37,DAKOTA,MPX,44.66,-93.18,44.66,-93.18,0,3,USD,DESHLER 4.7 SSW,40.0776,-97.7571,0.6163470547242035,KLVN,AIRLAKE,44.63,-93.23,MN,5.180232197521218,0,NA,NA,NA,NA,NA,NA,NA,NA,NA,NA,NA,NA
US10thay007,2013-08-01,475214,0000,2013-08-02,1200,NEBRASKA,31,Heavy Rain,121,MERRICK,GID,41.1,-98.28,41.1,-98.28,0,3,USD,DAVENPORT 6.0 SE,40.2377,-97.7531,2.3905280320813356,KGRI,GRAND ISLAND,40.97,-98.32,NE,14.856197782676698,0,  0,  0, 12, 17,  0,  0, 12, 17,  0,  1, 30, 37
US10thay007,2015-07-30,585584,0700,2015-07-30,1300,NEW MEXICO,35,Heavy Rain,19,GUADALUPE,ABQ,34.94,-104.68,34.94,-104.68,0,3,USD,DAVENPORT 6.0 SE,40.2377,-97.7531,3.678673698648517,KCQC,CLINES CORNERS,35,-105.55,NM,79.64258355269797,0,  2,  4, 56, 25,  2,  4, 56, 25,  4,  4, 79, 46
US10thay011,2010-09-22,262968,2030,2010-09-23,0400,MINNESOTA,27,Heavy Rain,169,WINONA,ARX,44.07,-92.0307,44.07,-92.0307,0,3,USD,CHESTER 3.4 NE,40.0469,-97.5767,4.747336442407555,KONA,WINONA_MUNI,44.08,-91.7,MN,26.471213678925228,0,NA,NA,NA,NA,NA,NA,NA,NA,NA,NA,NA,NA
US10thay011,2013-07-31,467146,0300,2013-07-31,0559,TEXAS,48,Heavy Rain,341,MOORE,AMA,35.8724,-101.9796,35.843,-101.9633,0,3,USD,CHESTER 3.4 NE,40.0469,-97.5767,0.8170548451948195,KDUX,DUMAS/MOORE COUNTY,35.86,-102.01,TX,3.0702422406198355,0,  0,  0,  6,  6,  0,  0,  6,  6,  0,  0, 22, 26
US10thay011,2015-06-11,576243,1400,2015-06-12,1400,IOWA,19,Heavy Rain,49,DALLAS,DMX,41.81,-94.22,41.81,-94.22,0,3,USD,CHESTER 3.4 NE,40.0469,-97.5767,0.5027251419532933,KBNW,BOONE_MUNI,42.05,-93.85,IA,40.65384053589878,6,  0,  0, 13, 12,  0,  0, 13, 12,  0,  1, 23, 50
US10thay014,2015-06-11,576241,1300,2015-06-12,1300,IOWA,19,Heavy Rain,15,BOONE,DMX,42.05,-93.88,42.05,-93.88,0,3,USD,HEBRON 6.6 ESE,40.1034,-97.4907,3.441924754792177,KBNW,BOONE_MUNI,42.05,-93.85,IA,2.4798440768882797,6,  0,  0, 13, 12,  0,  0, 13, 12,  0,  1, 23, 50
US10thay018,2011-02-28,276153,1300,2011-02-28,2235,KENTUCKY,21,Heavy Rain,131,LESLIE,JKL,37.18,-83.42,37.18,-83.42,0,3,USD,HEBRON 0.6 ENE,40.171,-97.5764,0.3254658635718316,KJKL,JACKSON,37.6,-83.32,KY,47.58339253138836,0,NA,NA,NA,NA,NA,NA,NA,NA,NA,NA,NA,NA
US10thay018,2015-06-17,573501,1612,2015-06-17,1812,OHIO,39,Heavy Rain,113,MONTGOMERY,ILN,39.74,-84.18,39.74,-84.18,0,3,USD,HEBRON 0.6 ENE,40.171,-97.5764,0.3254658635718316,KFFO,WRIGHT-PATTERSON,39.83,-84.05,OH,14.968117507410948,0,  1,  1, 55, 44,  1,  1, 55, 44,  3,  3, 98, 56
US10thay019,2011-06-21,315046,1936,2011-06-21,2006,KENTUCKY,21,Heavy Rain,83,GRAVES,PAH,36.82,-88.65,36.82,-88.65,0,3,USD,ALEXANDRIA 4.1 WNW,40.2629,-97.4639,1.497141498386428,KPAH,PADUCAH,37.07,-88.77,KY,29.80740878944503,1,NA,NA,NA,NA,NA,NA,NA,NA,NA,NA,NA,NA
US10thay019,2011-11-15,347609,0600,2011-11-15,0559,ARKANSAS,5,Heavy Rain,119,PULASKI,LZK,34.73,-92.23,34.73,-92.23,0,3,USD,ALEXANDRIA 4.1 WNW,40.2629,-97.4639,1.5621533655793558,KLIT,LITTLE ROCK,34.73,-92.23,AR,0,0,NA,NA,NA,NA,NA,NA,NA,NA,NA,NA,NA,NA
US10thay019,2015-04-24,573710,0200,2015-04-25,1418,CALIFORNIA,6,Heavy Rain,17,EL DORADO,STO,38.76,-120.5,38.76,-120.5,0,3,USD,ALEXANDRIA 4.1 WNW,40.2629,-97.4639,1.497141498386428,KTVL,SOUTH LAKE TAHOE,38.9,-120,CA,46.07517010370972,0,  0,  1, 21, 25,  0,  1, 21, 25,  1,  3, 52, 47
US10thay019,2015-06-11,576242,1300,2015-06-12,1300,IOWA,19,Heavy Rain,29,CASS,DMX,41.4,-95.01,41.4,-95.01,0,3,USD,ALEXANDRIA 4.1 WNW,40.2629,-97.4639,1.5621533655793558,KAIO,ATLANTIC,41.4,-95.05,IA,3.3400792627219964,5,  0,  0, 12, 13,  0,  0, 12, 13,  0,  1, 17, 44
US10thay020,2012-05-06,370202,1300,2012-05-06,1300,MINNESOTA,27,Heavy Rain,19,CARVER,MPX,44.85,-93.79,44.85,-93.79,0,3,USD,BYRON 0.2 ESE,40.0027,-97.7648,0.535090228059434,KGYL,GLENCOE,44.76,-94.08,MN,25.00012314048774,0,NA,NA,NA,NA,NA,NA,NA,NA,NA,NA,NA,NA
US10thay020,2015-07-26,597594,1200,2015-07-27,1200,KANSAS,20,Heavy Rain,101,LANE,DDC,38.28,-100.46,38.28,-100.46,0,3,USD,BYRON 0.2 ESE,40.0027,-97.7648,0.535090228059434,KGCK,GARDEN CITY,37.93,-100.72,KS,45.129902418642494,3,  0,  0,  8, 21,  0,  0,  8, 21,  3,  0, 58, 15
US10vall003,2016-07-19,647456,1330,2016-07-19,1803,IOWA,19,Heavy Rain,153,POLK,DMX,41.61,-93.78,41.61,-93.78,0,3,USD,ELYRIA 4.8 SW,41.6335,-99.0738,1.3288202843902557,KDSM,DES MOINES,41.53,-93.65,IA,14.018873505253321,3,  3,  0, 59, 13,  3,  0, 59, 13,  3,  4, 71, 54
US10vall007,2016-07-19,647458,1330,2016-07-19,1830,IOWA,19,Heavy Rain,49,DALLAS,DMX,41.58,-93.79,41.58,-93.79,0,3,USD,ARCADIA 4.4 E,41.4236,-99.042,1.147708887847848,KDSM,DES MOINES,41.53,-93.65,IA,12.922480416259592,2,  3,  0, 59, 13,  3,  0, 59, 13,  3,  4, 71, 54
US10webs002,2011-07-30,337348,2100,2011-07-30,2145,OKLAHOMA,40,Heavy Rain,73,KINGFISHER,OUN,35.98,-97.91,35.98,-97.91,0,3,USD,BLADEN 1.7 ESE,40.3067,-98.5694,1.6848116887514628,KEND,VANCE AFB,36.35,-97.92,OK,41.198014984367326,0,NA,NA,NA,NA,NA,NA,NA,NA,NA,NA,NA,NA
US10webs009,2016-08-01,650444,0730,2016-08-01,1525,IOWA,19,Heavy Rain,159,RINGGOLD,DMX,40.71,-94.23,40.71,-94.23,0,3,USD,BLADEN 4.4 SW,40.2786,-98.6577,6.577857914940062,KLWD,LAMONI,40.62,-93.93,IA,27.241078246399052,0,  0,  0, 17, 24,  0,  0, 17, 24,  0,  1, 25, 42
US10webs013,2011-04-24,304762,0051,2011-04-24,0051,KENTUCKY,21,Heavy Rain,29,BULLITT,LMK,37.99,-85.66,37.99,-85.66,0,3,USD,RED CLOUD 4.3 E,40.0891,-98.4366,1.932831493951585,KSDF,LOUISVILLE,38.18,-85.73,KY,22.02203542706131,0,NA,NA,NA,NA,NA,NA,NA,NA,NA,NA,NA,NA
US10webs013,2011-05-19,306403,1200,2011-05-20,1200,NEBRASKA,31,Heavy Rain,35,CLAY,GID,40.4,-98.1,40.4,-98.1,0,3,USD,RED CLOUD 4.3 E,40.0891,-98.4366,1.932831493951585,KHSI,HASTINGS,40.6,-98.43,NE,35.72082351339063,4,NA,NA,NA,NA,NA,NA,NA,NA,NA,NA,NA,NA
US10webs013,2011-11-14,353759,2336,2011-11-14,0000,OHIO,39,Heavy Rain,65,HARDIN,ILN,40.65,-83.6,40.65,-83.6,0,3,USD,RED CLOUD 4.3 E,40.0891,-98.4366,1.932831493951585,KAOH,LIMA,40.71,-84.02,OH,36.080169225995604,0,NA,NA,NA,NA,NA,NA,NA,NA,NA,NA,NA,NA
US10webs013,2013-10-05,480668,0600,2013-10-05,0559,INDIANA,18,Heavy Rain,147,SPENCER,PAH,37.88,-87.05,37.88,-87.05,0,3,USD,RED CLOUD 4.3 E,40.0891,-98.4366,1.5845904418308236,KOWB,OWENSBORO,37.74,-87.17,KY,18.821923395690355,0,  0,  0,  5, 18,  0,  0,  5, 18,  0,  4, 19, 58
US10webs015,2012-07-05,389174,1913,2012-07-05,1913,KENTUCKY,21,Heavy Rain,109,JACKSON,JKL,37.36,-84,37.36,-84,0,3,USD,LAWRENCE 1.7 NNW,40.3144,-98.2739,1.636515430117148,KLOZ,LONDON,37.08,-84.08,KY,31.966021097899834,0,NA,NA,NA,NA,NA,NA,NA,NA,NA,NA,NA,NA
US10webs019,2011-09-04,331985,0500,2011-09-06,0500,FLORIDA,12,Heavy Rain,73,LEON,TAE,30.324,-84.307,30.324,-84.307,0,3,USD,BLUE HILL 5.0 SW,40.2799,-98.5158,1.4491235400939715,KTLH,TALLAHASSEE,30.38,-84.37,FL,8.688311965577448,0,NA,NA,NA,NA,NA,NA,NA,NA,NA,NA,NA,NA
US10webs019,2014-06-30,516311,0930,2014-06-30,1200,IOWA,19,Heavy Rain,25,CALHOUN,DMX,42.41,-94.63,42.41,-94.63,0,3,USD,BLUE HILL 5.0 SW,40.2799,-98.5158,1.4491235400939715,KFOD,FT DODGE,42.55,-94.18,IA,40.097349002764574,1,  1,  2, 43, 38,  1,  2, 43, 38,  4,  4, 82, 70
US10whee001,2012-06-04,374767,2000,2012-06-04,2055,ARKANSAS,5,Heavy Rain,119,PULASKI,LZK,34.8357,-92.2599,34.8357,-92.2599,0,3,USD,BARTLETT 8.6 NW,41.9939,-98.6327,4.203832938348724,KLIT,LITTLE ROCK,34.73,-92.23,AR,12.079862029570677,0,NA,NA,NA,NA,NA,NA,NA,NA,NA,NA,NA,NA
US10whee002,2012-05-30,380989,1751,2012-05-30,1751,NORTH CAROLINA,37,Heavy Rain,95,HYDE,MHX,35.46,-76.47,35.46,-76.47,0,3,USD,BARTLETT 9 NE,41.9864,-98.5104,6.68351721982475,KOCW,WASH.-WARREN FLD.,35.57,-77.05,NC,53.96142355655165,0,NA,NA,NA,NA,NA,NA,NA,NA,NA,NA,NA,NA
US10york008,2015-02-22,562172,0030,2015-02-22,0300,CALIFORNIA,6,Heavy Rain,29,KERN,HNX,35.7001,-120.1432,35.6685,-120.0782,0,3,USD,BENEDICT 3.5 W,41.0186,-97.672,2.425463854561782,KPRB,PASO ROBLES,35.67,-120.63,CA,44.14263050220518,0,  0,  0,  2, 15,  0,  0,  2, 15,  0,  0,  8, 12
US10york020,2011-07-24,323059,1447,2011-07-24,1530,MISSISSIPPI,28,Heavy Rain,75,LAUDERDALE,JAN,32.3783,-88.6432,32.3783,-88.6432,0,3,USD,BRADSHAW 6.4 N,40.9758,-97.7336,0.35647387677178793,KMEI,MERIDIAN,32.33,-88.75,MS,11.391924834815248,0,NA,NA,NA,NA,NA,NA,NA,NA,NA,NA,NA,NA
US10york023,2013-04-18,438572,1649,2013-04-18,1849,MISSOURI,29,Heavy Rain,215,TEXAS,SGF,37.3,-92.21,37.3,-92.21,0,3,USD,STROMSBURG 6.8 SE,41.0357,-97.5205,1.7846138032504328,KTBN,FT LEONARD WOOD,37.75,-92.15,MO,50.37306277986219,2,NA,NA,NA,NA,NA,NA,NA,NA,NA,NA,NA,NA
US10york024,2014-08-09,526221,0221,2014-08-09,0321,SOUTH CAROLINA,45,Heavy Rain,79,RICHLAND,CAE,33.99,-81.02,33.99,-81.02,0,3,USD,HENDERSON 2.5 N,40.816,-97.806,10.022810316403286,KCUB,COLUMBIA-OWENS ARPT.,33.97,-80.99,SC,3.5532794178657965,6,  0,  2, 32, 39,  0,  2, 32, 39,  0,  0, 28, 38
US10york032,2011-05-24,313682,1200,2011-05-25,1200,KANSAS,20,Heavy Rain,89,JEWELL,GID,39.67,-98.35,39.67,-98.35,0,3,USD,YORK 6.9 NE,40.9538,-97.5226,3.4215151800677974,KCNK,CONCORDIA,39.55,-97.65,KS,61.50063040798289,0,NA,NA,NA,NA,NA,NA,NA,NA,NA,NA,NA,NA
US1ALLD0012,2016-07-31,640941,1100,2016-07-31,1100,NEW JERSEY,34,Heavy Rain,23,MIDDLESEX,PHI,40.47,-74.4,40.47,-74.4,0,3,USD,KILLEN 8.1 N,34.9776,-87.5097,8.098834235129019,KSMQ,SOMERSET,40.62,-74.67,NJ,28.29253764515895,1,  3,  1, 78, 37,  3,  1, 78, 37,  3,  3, 99, 64
US1ARCK0002,2013-05-22,445744,1850,2013-05-22,2100,NEW YORK,36,Heavy Rain,93,SCHENECTADY,ALY,42.7871,-73.9709,42.7871,-73.9709,0,3,USD,ARKADELPHIA 7.8 NNE,34.2226,-93.0039,0.46061186915219293,KSCH,SCHENECTADY,42.85,-73.95,NY,7.20696321930138,5,NA,NA,NA,NA,NA,NA,NA,NA,NA,NA,NA,NA
US1ARCN0003,2012-09-17,410698,0030,2012-09-17,0130,KENTUCKY,21,Heavy Rain,199,PULASKI,JKL,37.1,-84.6,37.1,-84.6,0,3,USD,HAMPTON 6.8 SE,33.479,-92.3705,2.6150148495705277,KSME,SOMERSET,37.05,-84.61,KY,5.636390630407062,5,NA,NA,NA,NA,NA,NA,NA,NA,NA,NA,NA,NA
US1ARCW0010,2013-06-10,460308,1400,2013-06-11,0600,DELAWARE,10,Heavy Rain,5,SUSSEX,PHI,38.68,-75.37,38.68,-75.37,0,3,USD,ADONA 6.1 N,35.1267,-92.9183,0.7870005907775853,KGED,GEORGETOWN,38.69,-75.36,DE,1.412190783180955,3,NA,NA,NA,NA,NA,NA,NA,NA,NA,NA,NA,NA
US1ARDL0001,2013-03-10,439209,2000,2013-03-11,1200,TENNESSEE,47,Heavy Rain,83,HOUSTON,OHX,36.31,-87.78,36.31,-87.78,0,3,USD,FORDYCE 6.6 NNW,33.9048,-92.461,7.971329996904816,KHOP,FT. CAMBELL AAF,36.67,-87.5,KY,47.264737719354606,1,NA,NA,NA,NA,NA,NA,NA,NA,NA,NA,NA,NA
US1ARDR0009,2012-07-26,402089,2325,2012-07-26,2325,PENNSYLVANIA,42,Heavy Rain,63,INDIANA,PBZ,40.54,-79.07,40.54,-79.07,0,3,USD,MONTICELLO 1.6 WNW,33.6309,-91.82,1.0343037564722395,KIDI,STEWART FIELD,40.63,-79.1,PA,10.33478792453681,0,NA,NA,NA,NA,NA,NA,NA,NA,NA,NA,NA,NA
US1ARFK0002,2012-04-15,365249,1200,2012-04-15,1200,IOWA,19,Heavy Rain,153,POLK,DMX,41.74,-93.72,41.74,-93.72,0,3,USD,CONWAY 1.0 NW,35.0999,-92.464,1.087189953354739,KIKV,ANKENY,41.69,-93.57,IA,13.650686381534356,0,NA,NA,NA,NA,NA,NA,NA,NA,NA,NA,NA,NA
US1ARFK0005,2012-04-15,365253,1200,2012-04-15,1200,IOWA,19,Heavy Rain,153,POLK,DMX,41.53,-93.66,41.53,-93.66,0,3,USD,MAYFLOWER 2.4 ESE,34.9596,-92.3786,2.8694881824844187,KDSM,DES MOINES,41.53,-93.65,IA,0.8333473602307829,0,NA,NA,NA,NA,NA,NA,NA,NA,NA,NA,NA,NA
US1ARFK0010,2014-06-01,516739,0600,2014-06-01,2130,SOUTH DAKOTA,46,Heavy Rain,87,MCCOOK,FSD,43.6,-97.29,43.6,-97.29,0,3,USD,VILONIA 5.7 NNE,35.1659,-92.1908,8.12092669830358,KFSD,SIOUX FALLS,43.57,-96.73,SD,45.27857971239308,3,  4,  3, 99, 47,  4,  3, 99, 47,  4,  3, 85, 54
US1ARJF0001,2012-09-17,410702,1200,2012-09-18,1200,KENTUCKY,21,Heavy Rain,25,BREATHITT,JKL,37.65,-83.25,37.65,-83.25,0,3,USD,WHITE HALL 4.1 NNW,34.3301,-92.1272,0.7348051560832632,KJKL,JACKSON,37.6,-83.32,KY,8.310858578147602,4,NA,NA,NA,NA,NA,NA,NA,NA,NA,NA,NA,NA
US1ARJF0001,2013-05-26,442397,1200,2013-05-26,1200,IOWA,19,Heavy Rain,75,GRUNDY,DMX,42.36,-92.77,42.36,-92.77,0,3,USD,WHITE HALL 4.1 NNW,34.3301,-92.1272,8.535196975255023,KMIW,MARSHALLTOWN ARPT,42.11,-92.92,IA,30.45235301754612,0,NA,NA,NA,NA,NA,NA,NA,NA,NA,NA,NA,NA
US1ARJF0002,2012-05-14,386538,0242,2012-05-14,0242,FLORIDA,12,Heavy Rain,31,DUVAL,JAX,30.15,-81.64,30.15,-81.64,0,3,USD,WHITE HALL 0.8 SE,34.2675,-92.089,0.6418215604594856,KNIP,JACKSONVILLE NAS,30.23,-81.68,FL,9.701668215941144,0,NA,NA,NA,NA,NA,NA,NA,NA,NA,NA,NA,NA
US1ARJF0002,2012-06-20,395894,2100,2012-06-20,0315,MICHIGAN,26,Heavy Rain,13,BARAGA,MQT,46.78,-88.66,46.78,-88.66,0,3,USD,WHITE HALL 0.8 SE,34.2675,-92.089,0.6418215604594856,KCMX,HANCOCK,47.17,-88.5,MI,45.083438851403535,0,NA,NA,NA,NA,NA,NA,NA,NA,NA,NA,NA,NA
US1ARLK0006,2013-04-18,435115,1159,2013-04-18,1159,IOWA,19,Heavy Rain,187,WEBSTER,DMX,42.26,-94.18,42.26,-94.18,0,3,USD,CARLISLE 3.3 W,34.784,-91.8043,12.88851623980151,KEBS,WEBSTER CITY,42.43,-93.87,IA,31.75954329984472,0,NA,NA,NA,NA,NA,NA,NA,NA,NA,NA,NA,NA
US1ARLK0007,2011-02-07,276324,0501,2011-02-07,0459,FLORIDA,12,Heavy Rain,35,FLAGLER,JAX,29.57,-81.21,29.57,-81.21,0,3,USD,CABOT 1.3 SW,34.9562,-92.0404,4.038649219591643,KSGJ,T. AUGUSTINE,29.97,-81.33,FL,46.01278491257031,3,NA,NA,NA,NA,NA,NA,NA,NA,NA,NA,NA,NA
US1ARLN0004,2013-03-18,440384,1700,2013-03-18,1800,KENTUCKY,21,Heavy Rain,161,MASON,ILN,38.5066,-83.77,38.5124,-83.7539,0,3,USD,STAR CITY 4.3 SW,33.8934,-91.893,11.09117391721265,KLUK,CINCINNATI/LUNK,39.1,-84.43,OH,87.41666010684825,4,NA,NA,NA,NA,NA,NA,NA,NA,NA,NA,NA,NA
US1ARNW0008,2014-06-26,532096,2100,2014-06-26,2140,WASHINGTON,53,Heavy Rain,63,SPOKANE,OTX,47.6549,-117.4216,47.6538,-117.4204,13,3,USD,JASPER 13.4 SW,35.8995,-93.384,10.685454553748931,KSFF,SPOKANE/FELTS,47.67,-117.33,WA,7.0702807619607855,4,  0,  0,  2, 24,  0,  0,  2, 24,  0,  0, 32, 22
US1AROC0011,2013-04-18,435116,1200,2013-04-18,1200,IOWA,19,Heavy Rain,49,DALLAS,DMX,41.59,-93.83,41.59,-93.83,0,3,USD,CAMDEN 8.9 NNE,33.6777,-92.766,10.794034297632917,KDSM,DES MOINES,41.53,-93.65,IA,16.413714697946354,5,NA,NA,NA,NA,NA,NA,NA,NA,NA,NA,NA,NA
US1ARPK0007,2013-03-10,439207,2000,2013-03-11,1200,TENNESSEE,47,Heavy Rain,5,BENTON,OHX,36.11,-88.05,36.11,-88.05,0,3,USD,MURFREESBORO 0.2 ENE,34.0647,-93.6874,2.7113095465610044,KHOP,FT. CAMBELL AAF,36.67,-87.5,KY,79.46852319809685,3,NA,NA,NA,NA,NA,NA,NA,NA,NA,NA,NA,NA
US1ARPS0016,2012-05-24,380321,1200,2012-05-24,1200,MINNESOTA,27,Heavy Rain,53,HENNEPIN,MPX,45.07,-93.58,45.07,-93.58,0,3,USD,NORTH LITTLE ROCK 1.2 E,34.7892,-92.2341,0.5460771221082619,KMIC,MINNEAPOLIS CRYS.,45.06,-93.35,MN,18.11807007772935,0,NA,NA,NA,NA,NA,NA,NA,NA,NA,NA,NA,NA
US1ARPS0026,2014-09-27,538701,1300,2014-09-30,0459,FLORIDA,12,Heavy Rain,103,PINELLAS,TBW,27.758,-82.716,27.758,-82.716,0,3,USD,SHERWOOD 4.6 NNW,34.8923,-92.2439,1.86494929255846,KSPG,SAINT_PETERSBURG,27.77,-82.63,FL,8.575994899449247,0,  4,  5, 72, 50,  4,  5, 72, 50,  4,  4, 88, 56
US1ARPS0054,2014-08-25,542105,2145,2014-08-25,2300,ARIZONA,4,Heavy Rain,25,YAVAPAI,FGZ,34.57,-113.17,34.4253,-113.17,0,3,USD,MAUMELLE 0.8 SE,34.8446,-92.3996,4.411098190261258,KPRC,PRESCOTT,34.65,-112.43,AZ,68.38108372040233,0,  0,  0,  8,  8,  0,  0,  8,  8,  0,  0, 11, 17
US1ARPS0056,2013-05-24,449517,0000,2013-05-25,1200,NEBRASKA,31,Heavy Rain,163,SHERMAN,GID,41.28,-98.98,41.28,-98.98,0,3,USD,LITTLE ROCK 4.0 NNE,34.7786,-92.3393,1.0979440890653611,KODX,ORD,41.62,-98.95,NE,37.931308445700445,0,NA,NA,NA,NA,NA,NA,NA,NA,NA,NA,NA,NA
US1ARPS0061,2014-10-09,543679,0500,2014-10-09,0500,KANSAS,20,Heavy Rain,19,CHAUTAUQUA,ICT,37.13,-96.18,37.13,-96.18,0,3,USD,SHERWOOD 1.9 NW,34.8515,-92.2315,0.7209646453346146,KBVO,BARTLESVILLE,36.75,-96,OK,45.23157893249423,4,  0,  2, 16, 41,  0,  2, 16, 41,  1,  0, 46, 25
US1ARSH0008,2013-08-12,476877,0200,2013-08-12,0300,KANSAS,20,Heavy Rain,57,FORD,DDC,37.78,-100.02,37.78,-100.02,0,3,USD,CAVE CITY 0.8 SE,35.9379,-91.5379,7.86292754877662,KDDC,DODGE CITY,37.77,-99.97,KS,4.5381213543721,4,  0,  0,  6, 12,  0,  0,  6, 12,  0,  1,  9, 30
US1ARSL0023,2016-08-19,656530,1412,2016-08-19,1812,TEXAS,48,Heavy Rain,503,YOUNG,FWD,33.37,-98.77,33.37,-98.77,0,3,USD,BENTON 10.9 WSW,34.536,-92.7651,4.028112247179053,KRPH,GRAHAM MUNI AP,33.11,-98.56,TX,34.92831404137546,2,  2,  5, 53, 43,  2,  5, 53, 43,  3,  4, 69, 40
US1ARST0011,2016-08-10,654603,0400,2016-08-11,1200,MINNESOTA,27,Heavy Rain,157,WABASHA,ARX,44.32,-92,44.32,-92,0,3,USD,LESLIE 10.3 ENE,35.8674,-92.3777,2.607005554717134,KONA,WINONA_MUNI,44.08,-91.7,MN,35.874623136589435,0,  0,  0,  4, 15,  0,  0,  4, 15,  0,  0, 11, 26
US1ARWH0002,2013-05-17,440182,1710,2013-05-17,1710,IOWA,19,Heavy Rain,195,WORTH,DMX,43.35,-93.21,43.35,-93.21,0,3,USD,BEEBE 0.4 ESE,35.0693,-91.8879,7.760494706945235,KMCW,MASON CITY,43.15,-93.33,IA,24.297125604559703,4,NA,NA,NA,NA,NA,NA,NA,NA,NA,NA,NA,NA
US1ARWH0005,2012-07-08,404852,0400,2012-07-09,1200,KANSAS,20,Heavy Rain,57,FORD,DDC,37.76,-100.01,37.76,-100.01,0,3,USD,SEARCY 4.1 SE,35.1937,-91.6902,1.7637763821311605,KDDC,DODGE CITY,37.77,-99.97,KS,3.6918793467136277,2,NA,NA,NA,NA,NA,NA,NA,NA,NA,NA,NA,NA
US1ARWH0016,2013-09-20,469919,0600,2013-09-21,0559,ARKANSAS,5,Heavy Rain,69,JEFFERSON,LZK,34.27,-92.185,34.25,-91.7274,0,3,USD,SEARCY 1.0 W,35.2451,-91.748,3.23456792950806,KPBF,PINE BLUFF,34.17,-91.93,AR,25.9782564176012,5,  0,  0, 14, 15,  0,  0, 14, 15,  0,  0,  6, 25
US1AZCN0002,2012-07-18,394770,2120,2012-07-18,2150,IOWA,19,Heavy Rain,43,CLAYTON,ARX,43.05,-91.39,43.05,-91.39,0,3,USD,FLAGSTAFF 7.8 SSW,35.0938,-111.6954,6.120360010512268,KPDC,PRAIRIE DU CHIEN,43.02,-91.12,WI,22.221601436118224,0,NA,NA,NA,NA,NA,NA,NA,NA,NA,NA,NA,NA
US1AZCN0002,2014-10-01,539002,1200,2014-10-01,1200,IOWA,19,Heavy Rain,77,GUTHRIE,DMX,41.8,-94.31,41.8,-94.31,0,3,USD,FLAGSTAFF 7.8 SSW,35.0938,-111.6954,5.084366538895376,KBNW,BOONE_MUNI,42.05,-93.85,IA,47.18077017428665,0,  0,  0, 35, 24,  0,  0, 35, 24,  0,  0, 41, 25
US1AZCN0002,2014-10-01,539002,1200,2014-10-01,1200,IOWA,19,Heavy Rain,77,GUTHRIE,DMX,41.8,-94.31,41.8,-94.31,0,3,USD,FLAGSTAFF 7.8 SSW,35.0938,-111.6954,5.084366538895376,KBNW,BOONE_MUNI,42.05,-93.85,IA,47.18077017428665,0,  0,  0, 35, 24,  0,  0, 35, 24,  0,  0, 41, 25
US1AZCN0002,2014-10-01,539000,1200,2014-10-01,1200,IOWA,19,Heavy Rain,49,DALLAS,DMX,41.83,-94.16,41.83,-94.16,0,3,USD,FLAGSTAFF 7.8 SSW,35.0938,-111.6954,1.512589085675825,KBNW,BOONE_MUNI,42.05,-93.85,IA,35.477992291050654,0,  0,  0, 35, 24,  0,  0, 35, 24,  0,  0, 41, 25
US1AZCN0002,2014-10-01,539000,1200,2014-10-01,1200,IOWA,19,Heavy Rain,49,DALLAS,DMX,41.83,-94.16,41.83,-94.16,0,3,USD,FLAGSTAFF 7.8 SSW,35.0938,-111.6954,1.512589085675825,KBNW,BOONE_MUNI,42.05,-93.85,IA,35.477992291050654,0,  0,  0, 35, 24,  0,  0, 35, 24,  0,  0, 41, 25
US1AZCN0002,2014-10-08,543605,0246,2014-10-08,0330,ARIZONA,4,Heavy Rain,15,MOHAVE,VEF,35.1912,-114.04,35.1717,-114.0642,0,3,USD,FLAGSTAFF 7.8 SSW,35.0938,-111.6954,6.894407646600931,KIGM,KINGMAN,35.27,-113.95,AZ,11.996678082099708,0,  0,  0,  2,  3,  0,  0,  2,  3,  0,  0,  6,  7
US1AZCN0002,2015-08-17,592812,2200,2015-08-18,2200,IOWA,19,Heavy Rain,197,WRIGHT,DMX,42.64,-93.9,42.64,-93.9,0,3,USD,FLAGSTAFF 7.8 SSW,35.0938,-111.6954,2.9886778962919403,KCAV,CLARION,42.75,-93.77,IA,16.2194978067438,1,  0,  0, 26, 26,  0,  0, 26, 26,  0,  0, 14, 24
US1AZCN0003,2014-08-20,535923,0430,2014-08-21,0615,ILLINOIS,17,Heavy Rain,191,WAYNE,PAH,38.5782,-88.418,38.5782,-88.418,5,3,USD,WILLIAMS 0.4 SW,35.2432,-112.1951,3.5415276392668265,KFOA,FLORA MUNI AIRPORT,38.66,-88.45,IL,9.521779922760926,3,  0,  2, 21, 39,  0,  2, 21, 39,  1,  0, 43, 26
US1AZCN0007,2012-08-25,410876,1154,2012-08-25,1154,VIRGINIA,51,Heavy Rain,700,NEWPORT NEWS (C),AKQ,37.13,-76.5,37.13,-76.5,0,3,USD,FLAGSTAFF 1.4 W,35.1904,-111.6742,1.387843327271342,KPHF,NEWPORT NEWS,37.13,-76.5,VA,0,1,NA,NA,NA,NA,NA,NA,NA,NA,NA,NA,NA,NA
US1AZCN0020,2010-08-04,257702,2022,2010-08-04,2200,COLORADO,8,Heavy Rain,45,GARFIELD,GJT,39.6863,-107.9187,39.6492,-107.8775,0,3,USD,WILLIAMS 3.3 SSE,35.1934,-112.1765,8.069189115019721,KRIL,RIFLE/GARFIELD RGNL,39.53,-107.72,CO,24.354310649308616,0,NA,NA,NA,NA,NA,NA,NA,NA,NA,NA,NA,NA
US1AZCN0021,2013-06-12,446008,0200,2013-06-12,0320,IOWA,19,Heavy Rain,13,BLACK HAWK,DMX,42.52,-92.45,42.52,-92.45,0,3,USD,FLAGSTAFF 6.8 NW,35.256,-111.7404,1.0438002172477325,KALO,WATERLOO,42.55,-92.4,IA,5.289050250517368,0,NA,NA,NA,NA,NA,NA,NA,NA,NA,NA,NA,NA
US1AZCN0027,2015-07-28,588194,1515,2015-07-28,0415,IOWA,19,Heavy Rain,157,POWESHIEK,DMX,41.53,-92.6,41.53,-92.6,0,3,USD,FLAGSTAFF 8.2 NE,35.2617,-111.5343,0.6636090393506443,KPEA,PELLA MUNI AP,41.4,-92.95,IA,32.58612093739796,0,  0,  0,  5, 16,  0,  0,  5, 16,  1,  0, 52, 21
US1AZCN0106,2016-08-11,655320,0200,2016-08-12,1100,IOWA,19,Heavy Rain,49,DALLAS,DMX,41.59,-93.83,41.59,-93.83,0,3,USD,FLAGSTAFF 3.9 E,35.1935,-111.5814,0.4094481728418042,KDSM,DES MOINES,41.53,-93.65,IA,16.413714697946354,2,  0,  0, 12, 28,  0,  0, 12, 28,  0,  1, 20, 44
US1AZCN0107,2016-07-23,647668,1400,2016-07-23,1600,MINNESOTA,27,Heavy Rain,173,YELLOW MEDICINE,MPX,44.81,-95.56,44.81,-95.56,0,3,USD,FLAGSTAFF 1.2 ENE,35.1952,-111.6293,1.0239726155630506,KGDB,GRANITE FALLS MUNI,44.75,-95.56,MN,6.679169447596705,0,  0,  0,  3, 18,  0,  0,  3, 18,  0,  0, 18, 28
US1AZCN0107,2016-08-10,647705,0200,2016-08-11,1200,MINNESOTA,27,Heavy Rain,129,RENVILLE,MPX,44.81,-95,44.81,-95,0,3,USD,FLAGSTAFF 1.2 ENE,35.1952,-111.6293,2.926806657855156,KOVL,OLIVIA RGNL AIRPORT,44.78,-95.03,MN,4.095014316722453,0,  0,  0,  7, 18,  0,  0,  7, 18,  0,  0, 33, 29
US1AZGL0001,2010-03-28,222059,0100,2010-03-29,1900,VIRGINIA,51,Heavy Rain,620,FRANKLIN (C),AKQ,36.67,-76.92,36.67,-76.92,0,3,USD,PAYSON 1.0 WSW,34.2371,-111.344,0.08504030865159165,KFKN,FRANKLIN/J_B_ROSE,36.7,-76.9,VA,3.786888821332768,0,NA,NA,NA,NA,NA,NA,NA,NA,NA,NA,NA,NA
US1AZGL0001,2013-08-14,475978,0000,2013-08-14,0059,TEXAS,48,Heavy Rain,233,HUTCHINSON,AMA,35.6589,-101.4129,35.6589,-101.4129,0,3,USD,PAYSON 1.0 WSW,34.2371,-111.344,1.326735631492043,KBGD,BORGER,35.7,-101.4,TX,4.721587769513626,0,  1,  0, 32,  8,  1,  0, 32,  8,  2,  0, 53, 29
US1AZGL0003,2012-06-18,383707,1200,2012-06-18,1200,MINNESOTA,27,Heavy Rain,67,KANDIYOHI,MPX,45.12,-95.03,45.12,-95.03,0,3,USD,PINE 0.9 SW,34.3735,-111.4619,1.3096165999294103,KOVL,OLIVIA RGNL AIRPORT,44.78,-95.03,MN,37.848626869712774,0,NA,NA,NA,NA,NA,NA,NA,NA,NA,NA,NA,NA
US1AZGL0003,2012-07-20,398944,0400,2012-07-20,0400,VIRGINIA,51,Heavy Rain,181,SURRY,AKQ,37.17,-76.81,37.17,-76.81,0,3,USD,PINE 0.9 SW,34.3735,-111.4619,1.3096165999294103,KJGG,WILLIAMSBURG,37.24,-76.72,VA,11.153325445222857,0,NA,NA,NA,NA,NA,NA,NA,NA,NA,NA,NA,NA
US1AZGL0004,2016-05-10,633005,1200,2016-05-11,1200,NEBRASKA,31,Heavy Rain,185,YORK,GID,41.03,-97.4576,41.03,-97.4576,0,3,USD,PAYSON 6.3 NNE,34.3181,-111.2922,9.429148500224976,KJYR,YORK MUNICIPAL ARPT,40.9,-97.62,NE,19.894156034404826,0,  2,  3, 66, 41,  2,  3, 66, 41,  5,  4, 95, 53
US1AZGL0008,2015-05-04,568298,1900,2015-05-05,1300,NEW MEXICO,35,Heavy Rain,19,GUADALUPE,ABQ,35.19,-105.06,35.19,-105.06,0,3,USD,PAYSON 2.0 WNW,34.2453,-111.3506,0.5255179045886227,KCQC,CLINES CORNERS,35,-105.55,NM,49.38804489994148,2,  0,  0,  4,  7,  0,  0,  4,  7,  0,  0, 18, 21
US1AZMR0001,2010-08-22,258025,2330,2010-08-22,0100,NORTH CAROLINA,37,Heavy Rain,141,PENDER,ILM,34.55,-78.0179,34.55,-78.0179,0,3,USD,PHOENIX 4.4 S,33.4793,-112.0791,0.8475671787964008,KILM,WILMINGTON,34.27,-77.92,NC,32.440339472203526,3,NA,NA,NA,NA,NA,NA,NA,NA,NA,NA,NA,NA
US1AZMR0010,2010-09-22,262956,2230,2010-09-23,0400,MINNESOTA,27,Heavy Rain,45,FILLMORE,ARX,43.8398,-92.1942,43.8398,-92.1942,0,3,USD,MESA 0.6 NNW,33.4267,-111.7432,0.7299750288527993,KFKA,PRESTON/FILLMORE CO,43.68,-92.18,MN,17.825453019888077,2,NA,NA,NA,NA,NA,NA,NA,NA,NA,NA,NA,NA
US1AZMR0016,2013-04-27,441637,0328,2013-04-27,0328,KENTUCKY,21,Heavy Rain,157,MARSHALL,PAH,36.77,-88.3,36.77,-88.3,0,3,USD,SCOTTSDALE 2.3 NE,33.71,-111.8415,3.4491886958152898,KPAH,PADUCAH,37.07,-88.77,KY,53.52480960960893,0,NA,NA,NA,NA,NA,NA,NA,NA,NA,NA,NA,NA
US1AZMR0025,2012-08-16,410519,2330,2012-08-16,0030,TEXAS,48,Heavy Rain,229,HUDSPETH,EPZ,31.58,-105.86,31.58,-105.86,0,3,USD,PHOENIX 4.2 NE,33.4955,-112.0272,0.563725921119263,KELP,EL PASO,31.8,-106.4,TX,56.71045684796262,0,NA,NA,NA,NA,NA,NA,NA,NA,NA,NA,NA,NA
US1AZMR0025,2014-06-01,510871,1400,2014-06-01,1400,MINNESOTA,27,Heavy Rain,163,WASHINGTON,MPX,44.82,-92.93,44.82,-92.93,0,3,USD,PHOENIX 4.2 NE,33.4955,-112.0272,1.7086092155441892,KSTP,ST. PAUL,44.93,-93.07,MN,16.48984976214259,0,  4,  1, 72, 33,  4,  1, 72, 33,  2,  2, 63, 47
US1AZMR0025,2015-08-10,586910,1930,2015-08-10,2030,OHIO,39,Heavy Rain,89,LICKING,ILN,40.15,-82.69,40.15,-82.69,0,3,USD,PHOENIX 4.2 NE,33.4955,-112.0272,1.553498951008291,KCMH,COLUMBUS,40,-82.88,OH,23.254254295870325,0,  0,  0, 19, 29,  0,  0, 19, 29,  0,  1, 27, 47
US1AZMR0034,2015-05-15,575726,0415,2015-05-15,0659,ARIZONA,4,Heavy Rain,13,MARICOPA,PSR,33.34,-111.8,33.34,-111.8,0,3,USD,PHOENIX 5.6 SW,33.3925,-112.1437,3.3117531552972985,KCHD,CHANDLER,33.27,-111.82,AZ,8.011444544676817,0,  0,  0, 11,  3,  0,  0, 11,  3,  0,  0, 13,  4
US1AZMR0047,2010-09-29,262679,1300,2010-09-30,0400,VIRGINIA,51,Heavy Rain,740,PORTSMOUTH (C),AKQ,36.78,-76.33,36.78,-76.33,0,3,USD,CHANDLER 0.7 E,33.2934,-111.8556,1.526359490446468,KCPK,CHESAPEAKE,36.66,-76.32,VA,13.38810729944774,0,NA,NA,NA,NA,NA,NA,NA,NA,NA,NA,NA,NA
US1AZMR0075,2014-08-12,539428,2330,2014-08-12,0100,ARIZONA,4,Heavy Rain,25,YAVAPAI,FGZ,34.6007,-113.2073,34.5393,-113.1327,0,3,USD,GILBERT 3.8 NW,33.3741,-111.8053,1.5648492428138236,KPRC,PRESCOTT,34.65,-112.43,AZ,71.41412865058332,0,  0,  0, 14, 15,  0,  0, 14, 15,  0,  0, 26, 29
US1AZMR0078,2014-09-27,538697,1300,2014-09-30,0459,FLORIDA,12,Heavy Rain,81,MANATEE,TBW,27.54,-82.422,27.54,-82.422,0,3,USD,PHOENIX 15.3 NE,33.6656,-112.0101,0.6227603621447999,KSRQ,SARASOTA-BRADENTON,27.4,-82.55,FL,20.067711925118665,1,  4,  4, 73, 51,  4,  4, 73, 51,  4,  3, 92, 55
US1AZMR0080,2012-08-21,402977,0130,2012-08-21,0400,ARIZONA,4,Heavy Rain,21,PINAL,PSR,32.97,-111.55,32.97,-111.55,0,3,USD,NEW RIVER 3.2 ENE,33.9322,-112.0826,0.8998765538792282,KCGZ,CASA GRANDE,32.9,-111.7,AZ,16.03506432579629,0,NA,NA,NA,NA,NA,NA,NA,NA,NA,NA,NA,NA
US1AZMR0088,2014-09-27,538695,1300,2014-09-30,0459,FLORIDA,12,Heavy Rain,57,HILLSBOROUGH,TBW,27.9125,-82.2261,27.9125,-82.2261,0,3,USD,PHOENIX 10.0 NW,33.5827,-112.1413,0.32347897495670075,KVDF,TAMPA/VANDENBURG,28.01,-82.35,FL,16.316033563963078,0,  4,  5, 72, 51,  4,  5, 72, 51,  4,  4, 85, 57
US1AZMR0094,2010-06-22,236011,1030,2010-06-22,1411,IOWA,19,Heavy Rain,181,WARREN,DMX,41.47,-93.42,41.47,-93.42,0,3,USD,GLENDALE 2.8 NNW,33.5933,-112.1915,1.0838961512658758,KDSM,DES MOINES,41.53,-93.65,IA,20.305791201617435,0,NA,NA,NA,NA,NA,NA,NA,NA,NA,NA,NA,NA
US1AZMR0103,2014-06-29,531304,0403,2014-06-29,0430,WISCONSIN,55,Heavy Rain,111,SAUK,MKX,43.47,-89.74,43.47,-89.74,0,3,USD,SUN CITY 1.2 NNW,33.6321,-112.2903,3.7788615219768973,KDLL,BARABOO,43.32,-89.47,WI,27.491842215244155,0,  0,  0, 33, 32,  0,  0, 33, 32,  3,  1, 73, 44
US1AZMR0156,2010-03-28,222063,0100,2010-03-29,1900,VIRGINIA,51,Heavy Rain,81,GREENSVILLE,AKQ,36.82,-77.58,36.82,-77.58,0,3,USD,PHOENIX 8.0 NNE,33.553,-112.0403,2.093106601767084,KEMV,EMPORIA-GREENSVILLE,36.69,-77.48,VA,16.999194106171,0,NA,NA,NA,NA,NA,NA,NA,NA,NA,NA,NA,NA
US1AZMR0157,2010-09-29,262706,1300,2010-09-30,0400,VIRGINIA,51,Heavy Rain,181,SURRY,AKQ,37.13,-76.85,37.13,-76.85,0,3,USD,CHANDLER 6.6 SE,33.2213,-111.7756,1.8366570574605592,KJGG,WILLIAMSBURG,37.24,-76.72,VA,16.818685265672038,0,NA,NA,NA,NA,NA,NA,NA,NA,NA,NA,NA,NA
US1AZMR0161,2010-09-22,262954,2000,2010-09-23,0400,MINNESOTA,27,Heavy Rain,39,DODGE,ARX,44.15,-92.9,44.15,-92.9,0,3,USD,TEMPE 1.1 SW,33.3982,-111.9128,0.9481282677462408,KTOB,DODGE CENTER,44.02,-92.83,MN,15.516289593853113,2,NA,NA,NA,NA,NA,NA,NA,NA,NA,NA,NA,NA
US1AZMR0162,2013-06-30,459456,1921,2013-06-30,2021,OHIO,39,Heavy Rain,49,FRANKLIN,ILN,40.0587,-82.9982,40.0587,-82.9982,0,3,USD,PEORIA 10.3 N,33.727,-112.1978,8.019565756349097,KOSU,OHIO STATE UNIV.,40.08,-83.07,OH,6.560074126467781,0,NA,NA,NA,NA,NA,NA,NA,NA,NA,NA,NA,NA
US1AZMR0214,2010-09-29,262636,1300,2010-09-30,0400,VIRGINIA,51,Heavy Rain,570,COLONIAL HEIGHTS (C),AKQ,37.25,-77.42,37.25,-77.42,0,3,USD,CHANDLER 4.4 WNW,33.324,-111.9099,0.4448767443521118,KPTB,PETERSBURG,37.18,-77.52,VA,11.803055328344858,0,NA,NA,NA,NA,NA,NA,NA,NA,NA,NA,NA,NA
US1AZMR0228,2013-04-18,435118,1200,2013-04-18,1200,IOWA,19,Heavy Rain,175,UNION,DMX,41.13,-94.06,41.13,-94.06,0,3,USD,PHOENIX 9.5 SE,33.3289,-111.9739,1.9392098015202333,KCSQ,CRESTON,41.02,-94.37,IA,28.75246081374588,0,NA,NA,NA,NA,NA,NA,NA,NA,NA,NA,NA,NA
US1AZMR0228,2016-05-05,640196,2230,2016-05-05,2319,CALIFORNIA,6,Heavy Rain,17,EL DORADO,STO,38.78,-120.23,38.78,-120.23,0,3,USD,PHOENIX 9.5 SE,33.3289,-111.9739,1.0538871410890305,KTVL,SOUTH LAKE TAHOE,38.9,-120,CA,24.003131517306965,0,  0,  3, 14, 31,  0,  3, 14, 31,  0,  0, 25,  9
US1AZMR0244,2012-08-25,410895,0105,2012-08-25,0105,VIRGINIA,51,Heavy Rain,730,PETERSBURG (C),AKQ,37.2,-77.39,37.2,-77.39,0,3,USD,SCOTTSDALE 1.0 SW,33.4919,-111.9044,0.8831085960857805,KPTB,PETERSBURG,37.18,-77.52,VA,11.741547667311917,1,NA,NA,NA,NA,NA,NA,NA,NA,NA,NA,NA,NA
US1AZMR0245,2012-07-17,385313,2345,2012-07-17,0045,OREGON,41,Heavy Rain,49,MORROW,PDT,45.28,-119.53,45.28,-119.53,0,3,USD,GOODYEAR 2.9 W,33.4349,-112.4004,1.6572201972912668,KHRI,HERMISTON,45.83,-119.26,OR,64.74190073937442,0,NA,NA,NA,NA,NA,NA,NA,NA,NA,NA,NA,NA
US1AZMR0255,2014-09-01,543380,0700,2014-09-01,1300,KANSAS,20,Heavy Rain,115,MARION,ICT,38.17,-97.11,38.17,-97.11,0,3,USD,TEMPE 2.7 S,33.3718,-111.9059,0.7440415332330143,KEWK,NEWTON,38.05,-97.28,KS,20.004049382715973,0,  0,  0,  5, 14,  0,  0,  5, 14,  0,  0, 11, 24
US1AZMR0271,2011-06-27,322385,0130,2011-06-27,0130,MINNESOTA,27,Heavy Rain,75,LAKE,DLH,47.29,-91.28,47.29,-91.28,0,3,USD,PEORIA 7.5 ENE,33.631,-112.1142,1.3358403679875013,KBFW,SILVER_BAY,47.2,-91.4,MN,13.513443338655561,0,NA,NA,NA,NA,NA,NA,NA,NA,NA,NA,NA,NA
US1AZMR0280,2010-08-10,240017,2300,2010-08-10,0215,IOWA,19,Heavy Rain,187,WEBSTER,DMX,42.36,-94.15,42.36,-94.15,0,3,USD,GILBERT 2.4 NW,33.372,-111.812,0.2897421521106793,KFOD,FT DODGE,42.55,-94.18,IA,21.293740473737238,0,NA,NA,NA,NA,NA,NA,NA,NA,NA,NA,NA,NA
US1AZMR0288,2010-06-30,242607,1700,2010-06-30,2300,TEXAS,48,Heavy Rain,489,WILLACY,BRO,26.5272,-97.6231,26.3798,-97.8827,0,3,USD,MESA 13.4 E,33.4311,-111.5885,2.9187167999431827,KHRL,HARLINGEN,26.23,-97.67,TX,33.413140592031716,0,NA,NA,NA,NA,NA,NA,NA,NA,NA,NA,NA,NA
US1AZMR0322,2016-07-19,647484,1345,2016-07-19,2130,IOWA,19,Heavy Rain,153,POLK,DMX,41.6,-93.71,41.6,-93.71,0,3,USD,CAREFREE 13.2 W,33.855,-112.137,1.6653140095400452,KDSM,DES MOINES,41.53,-93.65,IA,9.257144193804328,0,  3,  0, 59, 13,  3,  0, 59, 13,  3,  4, 71, 54
US1AZMR0326,2015-05-23,580465,1800,2015-05-23,1800,TEXAS,48,Heavy Rain,439,TARRANT,FWD,32.8052,-97.2118,32.8052,-97.2118,0,3,USD,PHOENIX 6.3 SSW,33.3504,-112.0945,2.597853624354424,KFTW,FT. WORTH,32.82,-97.35,TX,13.034282596433846,0,  1,  5, 48, 34,  1,  5, 48, 34,  3,  4, 74, 42
US1AZMR0341,2012-08-05,388750,2330,2012-08-05,2330,KENTUCKY,21,Heavy Rain,93,HARDIN,LMK,37.7,-86.02,37.7,-86.02,0,3,USD,CHANDLER 2.6 ENE,33.3094,-111.7968,0.30475943246522397,KFTK,FORT KNOX,37.9,-85.97,KY,22.694126053490844,0,NA,NA,NA,NA,NA,NA,NA,NA,NA,NA,NA,NA
US1AZMR0341,2015-06-20,584922,2159,2015-06-20,2359,OHIO,39,Heavy Rain,89,LICKING,ILN,40.13,-82.34,40.13,-82.34,0,3,USD,CHANDLER 2.6 ENE,33.3094,-111.7968,3.4155297745009614,KVTA,NEWARK,40.02,-82.46,OH,15.950840080374098,0,  1,  0, 68, 35,  1,  0, 68, 35,  0,  1, 45, 48
US1AZMR0372,2015-06-15,589679,0028,2015-06-15,0028,INDIANA,18,Heavy Rain,103,MIAMI,IWX,40.7215,-86.1276,40.7215,-86.1276,0,3,USD,CAVE CREEK 9.4 WSW,33.8006,-112.1099,0.06735377896467797,KGUS,GRISSOM AFB,40.65,-86.15,IN,8.18086073641222,0,  2,  5, 84, 58,  2,  5, 84, 58,  3,  4, 85, 58
US1AZMR0378,2015-04-20,572448,1000,2015-04-20,1400,NEW JERSEY,34,Heavy Rain,15,GLOUCESTER,PHI,39.8515,-75.1046,39.7571,-75.2675,0,3,USD,GILBERT 7.2 SSE,33.252,-111.7369,0.6790766166939246,KPHL,PHILADELPHIA,39.88,-75.25,PA,12.82212642694599,0,  0,  0, 12, 22,  0,  0, 12, 22,  0,  4, 33, 63
US1AZMR0382,2014-09-27,542322,1815,2014-09-27,1853,ARIZONA,4,Heavy Rain,25,YAVAPAI,FGZ,34.22,-112.76,34.288,-112.6373,0,3,USD,PHOENIX 10.8 SSE,33.2966,-111.9978,1.1800771993745516,KPRC,PRESCOTT,34.65,-112.43,AZ,56.65030385763155,1,  0,  0, 17, 12,  0,  0, 17, 12,  0,  0, 21, 12
US1AZMR0382,2014-10-01,538995,1200,2014-10-01,1200,IOWA,19,Heavy Rain,29,CASS,DMX,41.26,-94.76,41.26,-94.76,0,3,USD,PHOENIX 10.8 SSE,33.2966,-111.9978,2.097604985850352,KAIO,ATLANTIC,41.4,-95.05,IA,28.819079297552957,0,  1,  0, 53, 27,  1,  0, 53, 27,  1,  0, 48, 28
US1AZNV0006,2010-09-27,260372,0500,2010-09-30,0330,NORTH CAROLINA,37,Heavy Rain,117,MARTIN,MHX,35.85,-77.07,35.85,-77.07,0,3,USD,WOODRUFF 2.1 S,34.7519,-110.0392,3.23561703509705,KOCW,WASH.-WARREN FLD.,35.57,-77.05,NC,31.22183780326563,0,NA,NA,NA,NA,NA,NA,NA,NA,NA,NA,NA,NA
US1AZNV0010,2010-09-27,260377,0500,2010-09-30,0330,NORTH CAROLINA,37,Heavy Rain,147,PITT,MHX,35.47,-77.3411,35.47,-77.3411,0,3,USD,SHOW LOW 6.5 WNW,34.2825,-110.1266,4.845143750491219,KPGV,PITT-GREENVILLE,35.63,-77.4,NC,18.592844461583557,0,NA,NA,NA,NA,NA,NA,NA,NA,NA,NA,NA,NA
US1AZNV0010,2014-04-23,510369,1200,2014-04-24,1200,NEBRASKA,31,Heavy Rain,79,HALL,GID,40.77,-98.41,40.77,-98.41,0,3,USD,SHOW LOW 6.5 WNW,34.2825,-110.1266,8.156315455765299,KHSI,HASTINGS,40.6,-98.43,NE,18.999471844221674,0,  0,  0,  0,  9,  0,  0,  0,  9,  0,  0,  1, 16
US1AZNV0013,2016-09-15,658848,1730,2016-09-16,0930,IOWA,19,Heavy Rain,39,CLARKE,DMX,41.05,-93.98,41.05,-93.98,0,3,USD,TAYLOR 2.3 SE,34.4342,-110.0659,6.164020624046948,KCSQ,CRESTON,41.02,-94.37,IA,32.917824242317174,1,  0,  0,  9, 13,  0,  0,  9, 13,  0,  0, 33, 32
US1AZPM0005,2011-07-24,323082,1200,2011-07-24,1730,MISSISSIPPI,28,Heavy Rain,75,LAUDERDALE,JAN,32.55,-88.82,32.55,-88.82,0,3,USD,TUCSON 5.0 NNW,32.2599,-110.9331,0.5330027755951168,KNMM,MERIDIAN NAS,32.55,-88.57,MS,23.458413312796218,0,NA,NA,NA,NA,NA,NA,NA,NA,NA,NA,NA,NA
US1AZPM0023,2011-09-29,340008,0125,2011-09-29,0145,TEXAS,48,Heavy Rain,505,ZAPATA,BRO,26.9075,-99.272,26.9048,-99.2671,0,3,USD,VAIL 4.9 S,31.9763,-110.7068,3.689210684472425,KLRD,LAREDO AFB,27.53,-99.47,TX,72.01502442415774,0,NA,NA,NA,NA,NA,NA,NA,NA,NA,NA,NA,NA
US1AZPM0047,2013-07-26,474072,1835,2013-07-26,1920,ARIZONA,4,Heavy Rain,5,COCONINO,FGZ,35.46,-111.48,35.6533,-111.33,0,3,USD,FLOWING WELLS 6.4 NNW,32.3827,-111.0379,0.9862330200640618,KFLG,FLAGSTAFF,35.13,-111.67,AZ,40.5893984633199,0,  0,  0, 18, 14,  0,  0, 18, 14,  0,  0, 29, 22
US1AZPM0119,2016-07-31,640967,1200,2016-07-31,1200,NEW JERSEY,34,Heavy Rain,23,MIDDLESEX,PHI,40.49,-74.45,40.49,-74.45,0,3,USD,TUCSON 2.0 ENE,32.2319,-110.8893,0.7498949452997281,KSMQ,SOMERSET,40.62,-74.67,NJ,23.572349846041888,2,  3,  1, 78, 37,  3,  1, 78, 37,  3,  3, 99, 64
US1AZPN0002,2010-05-02,223613,1230,2010-05-02,2030,KENTUCKY,21,Heavy Rain,197,POWELL,JKL,37.87,-83.92,37.87,-83.92,0,3,USD,CASA GRANDE 6.2 N,32.9818,-111.7433,3.1507635148866946,KJKL,JACKSON,37.6,-83.32,KY,60.77449897036445,0,NA,NA,NA,NA,NA,NA,NA,NA,NA,NA,NA,NA
US1AZPN0013,2010-08-18,250614,1400,2010-08-18,1630,MISSISSIPPI,28,Heavy Rain,1,ADAMS,JAN,31.38,-91.4,31.38,-91.4,0,3,USD,FLORENCE 5.5 WNW,33.0611,-111.4649,0.49076517159818617,KHEZ,NATCHEZ,31.62,-91.25,MS,30.273445471235853,2,NA,NA,NA,NA,NA,NA,NA,NA,NA,NA,NA,NA
US1AZPN0014,2010-08-18,250636,1400,2010-08-18,2030,MISSISSIPPI,28,Heavy Rain,1,ADAMS,JAN,31.43,-91.39,31.43,-91.39,0,3,USD,QUEEN CREEK 4.7 SSE,33.1817,-111.6046,1.3718249103785622,KHEZ,NATCHEZ,31.62,-91.25,MS,24.976644649428,4,NA,NA,NA,NA,NA,NA,NA,NA,NA,NA,NA,NA
US1AZPN0025,2011-10-31,345845,0900,2011-10-31,1200,FLORIDA,12,Heavy Rain,61,INDIAN RIVER,MLB,27.6088,-80.3846,27.6088,-80.3846,0,3,USD,FLORENCE 9.1 NW,33.108,-111.5072,2.1108907058214195,KVRB,VERO BEACH,27.65,-80.42,FL,5.764038325748845,0,NA,NA,NA,NA,NA,NA,NA,NA,NA,NA,NA,NA
US1AZPN0027,2010-06-15,225046,0110,2010-06-15,0110,MONTANA,30,Heavy Rain,33,GARFIELD,GGW,46.9599,-107.8944,46.9599,-107.8944,0,3,USD,APACHE JUNCTION 3.2 N,33.4563,-111.5425,4.200658462977264,KJDN,JORDAN,47.33,-106.83,MT,90.50880592417379,0,NA,NA,NA,NA,NA,NA,NA,NA,NA,NA,NA,NA
US1AZPN0027,2013-07-17,470186,0730,2013-07-17,1000,COLORADO,8,Heavy Rain,77,MESA,GJT,39.0726,-108.5522,39.0726,-108.5522,0,3,USD,APACHE JUNCTION 3.2 N,33.4563,-111.5425,4.200658462977264,KGJT,GRAND JUNCTION,39.12,-108.53,CO,5.614303380274103,1,  0,  0, 21, 24,  0,  0, 21, 24,  2,  1, 62, 32
US1AZPN0033,2012-05-17,387174,1800,2012-05-17,1800,GEORGIA,13,Heavy Rain,305,WAYNE,JAX,31.6,-81.89,31.6,-81.89,0,3,USD,CASA GRANDE 6.5 NNW,32.9603,-111.7841,17.87500229546049,KLHW,FORT STEWART,31.88,-81.57,GA,43.466084861296906,0,NA,NA,NA,NA,NA,NA,NA,NA,NA,NA,NA,NA
US1AZPN0037,2010-06-15,225045,2340,2010-06-15,0040,MONTANA,30,Heavy Rain,69,PETROLEUM,GGW,47.2316,-108.35,47.2316,-108.35,0,3,USD,CASA GRANDE 5.7 SE,32.809,-111.684,4.66065269066019,KLWT,LEWISTOWN,47.05,-109.45,MT,85.70869480868477,0,NA,NA,NA,NA,NA,NA,NA,NA,NA,NA,NA,NA
US1AZYM0001,2013-04-18,434995,1125,2013-04-18,1125,IOWA,19,Heavy Rain,125,MARION,DMX,41.32,-93.1,41.32,-93.1,0,3,USD,YUMA 13.8 ESE,32.6341,-114.4056,1.60130744651136,KOXV,KNOXVILLE,41.3,-93.12,IA,2.7845227823296006,0,NA,NA,NA,NA,NA,NA,NA,NA,NA,NA,NA,NA
US1AZYM0001,2013-04-27,448148,0500,2013-04-28,1200,TEXAS,48,Heavy Rain,175,GOLIAD,CRP,28.67,-97.4,28.67,-97.4,0,3,USD,YUMA 13.8 ESE,32.6341,-114.4056,0.6145012624548066,KVCT,VICTORIA,28.85,-96.92,TX,50.9476704573916,0,NA,NA,NA,NA,NA,NA,NA,NA,NA,NA,NA,NA
US1AZYM0002,2012-08-25,410896,0106,2012-08-25,0106,VIRGINIA,51,Heavy Rain,49,CUMBERLAND,AKQ,37.35,-78.43,37.35,-78.43,0,3,USD,SOMERTON 3.0 ESE,32.5676,-114.6555,0.49904054965356504,KFVX,FARMVILLE,37.35,-78.43,VA,0,0,NA,NA,NA,NA,NA,NA,NA,NA,NA,NA,NA,NA
US1AZYV0005,2010-07-21,242777,1500,2010-07-21,1530,KENTUCKY,21,Heavy Rain,199,PULASKI,JKL,37.3209,-84.5985,37.3209,-84.5985,0,3,USD,MAYER 8.5 SSE,34.2821,-112.1983,11.408262397607189,KSME,SOMERSET,37.05,-84.61,KY,30.173691479355114,0,NA,NA,NA,NA,NA,NA,NA,NA,NA,NA,NA,NA
US1AZYV0005,2012-06-24,395017,1200,2012-06-25,1700,FLORIDA,12,Heavy Rain,103,PINELLAS,TBW,27.9,-82.85,27.9,-82.85,0,3,USD,MAYER 8.5 SSE,34.2821,-112.1983,13.358932817427613,KPIE,ST PETERSBURG,27.92,-82.68,FL,16.87066200152184,0,NA,NA,NA,NA,NA,NA,NA,NA,NA,NA,NA,NA
US1AZYV0005,2012-08-09,406853,2300,2012-08-09,0100,NEW YORK,36,Heavy Rain,31,ESSEX,BTV,44.2591,-74.1673,44.2934,-73.8583,20,3,USD,MAYER 8.5 SSE,34.2821,-112.1983,15.162451045026287,KSLK,SARANAC LAKE,44.39,-74.2,NY,14.802587045506087,0,NA,NA,NA,NA,NA,NA,NA,NA,NA,NA,NA,NA
US1AZYV0005,2012-08-13,390785,0800,2012-08-13,1300,ARKANSAS,5,Heavy Rain,45,FAULKNER,LZK,34.9389,-92.3974,34.9389,-92.3974,0,3,USD,MAYER 8.5 SSE,34.2821,-112.1983,15.162451045026287,KLRF,LITTLE ROCK AFB,34.92,-92.15,AR,22.677047906028804,0,NA,NA,NA,NA,NA,NA,NA,NA,NA,NA,NA,NA
US1AZYV0005,2012-10-13,407943,1201,2012-10-14,1201,IOWA,19,Heavy Rain,99,JASPER,DMX,41.57,-93.26,41.57,-93.26,0,3,USD,MAYER 8.5 SSE,34.2821,-112.1983,12.17211822457475,KTNU,NEWTON_MUNI,41.68,-93.02,IA,23.42608141268787,0,NA,NA,NA,NA,NA,NA,NA,NA,NA,NA,NA,NA
US1AZYV0005,2013-07-21,454583,0045,2013-07-21,0045,SOUTH CAROLINA,45,Heavy Rain,63,LEXINGTON,CAE,33.99,-81.08,33.99,-81.08,2,3,USD,MAYER 8.5 SSE,34.2821,-112.1983,11.409009580860221,KCAE,COLUMBIA,33.95,-81.12,SC,5.784825006695558,5,  1,  0, 51, 29,  1,  0, 51, 29,  0,  0, 41, 35
US1AZYV0005,2014-05-28,523937,2135,2014-05-28,2215,TEXAS,48,Heavy Rain,61,CAMERON,BRO,25.9158,-97.5033,25.9028,-97.4898,0,3,USD,MAYER 8.5 SSE,34.2821,-112.1983,11.541294083102017,KBRO,BROWNSVILLE,25.9,-97.43,TX,7.547447306469007,0,  0,  0,  4, 19,  0,  0,  4, 19,  0,  0, 12, 17
US1AZYV0005,2014-06-03,510111,0051,2014-06-03,0551,IOWA,19,Heavy Rain,53,DECATUR,DMX,40.63,-93.9,40.63,-93.9,0,3,USD,MAYER 8.5 SSE,34.2821,-112.1983,1.6827895934489427,KLWD,LAMONI,40.62,-93.93,IA,2.768378350273889,0,  0,  1, 31, 38,  0,  1, 31, 38,  4,  4, 81, 68
US1AZYV0005,2014-08-23,536135,1224,2014-08-23,0024,MICHIGAN,26,Heavy Rain,3,ALGER,MQT,45.69,-87.11,45.69,-87.11,0,3,USD,MAYER 8.5 SSE,34.2821,-112.1983,0.8922164924158188,KESC,ESCANABA,45.75,-87.05,MI,8.145944041043984,0,  0,  0, 13, 29,  0,  0, 13, 29,  4,  0, 82, 36
US1AZYV0005,2014-09-01,531741,1200,2014-09-01,1200,IOWA,19,Heavy Rain,127,MARSHALL,DMX,42.04,-92.91,42.04,-92.91,0,3,USD,MAYER 8.5 SSE,34.2821,-112.1983,12.84530150633997,KMIW,MARSHALLTOWN ARPT,42.11,-92.92,IA,7.836051042984662,0,  0,  3, 30, 41,  0,  3, 30, 41,  1,  1, 47, 49
US1AZYV0005,2014-10-01,539001,1200,2014-10-01,1200,IOWA,19,Heavy Rain,49,DALLAS,DMX,41.84,-94.11,41.84,-94.11,0,3,USD,MAYER 8.5 SSE,34.2821,-112.1983,3.2149177791831582,KBNW,BOONE_MUNI,42.05,-93.85,IA,31.779213128849293,0,  0,  0, 35, 24,  0,  0, 35, 24,  0,  0, 41, 25
US1AZYV0005,2015-08-17,592814,2200,2015-08-18,2200,IOWA,19,Heavy Rain,175,UNION,DMX,41.03,-94.2,41.03,-94.2,0,3,USD,MAYER 8.5 SSE,34.2821,-112.1983,15.559179214818771,KCSQ,CRESTON,41.02,-94.37,IA,14.32027270056574,3,  0,  0,  4, 14,  0,  0,  4, 14,  0,  0, 10, 22
US1AZYV0005,2016-08-02,650457,0930,2016-08-02,1244,IOWA,19,Heavy Rain,51,DAVIS,DMX,40.68,-92.45,40.68,-92.45,0,3,USD,MAYER 8.5 SSE,34.2821,-112.1983,15.5802269734102,KOTM,OTTUMWA,41.1,-92.45,IA,46.75418613317482,0,  1,  0, 46, 25,  1,  0, 46, 25,  4,  1, 86, 43
US1AZYV0007,2014-05-11,528644,2120,2014-05-11,2320,KANSAS,20,Heavy Rain,57,FORD,DDC,37.79,-100.01,37.79,-100.01,0,3,USD,ASH FORK 4.9 SW,35.1652,-112.5315,7.55980499468401,KDDC,DODGE CITY,37.77,-99.97,KS,4.1644393516145275,0,  0,  0,  2,  8,  0,  0,  2,  8,  0,  0,  9, 15
US1AZYV0007,2015-09-06,599125,1845,2015-09-06,0335,WISCONSIN,55,Heavy Rain,121,TREMPEALEAU,ARX,44.58,-91.47,44.58,-91.47,0,3,USD,ASH FORK 4.9 SW,35.1652,-112.5315,16.47964470316677,KEAU,EAU CLAIRE,44.87,-91.48,WI,32.29233942134714,1,  0,  0, 20, 12,  0,  0, 20, 12,  2,  4, 66, 67
US1AZYV0017,2014-04-23,510371,1253,2014-04-24,1253,NEBRASKA,31,Heavy Rain,1,ADAMS,GID,40.66,-98.43,40.66,-98.43,0,3,USD,PRESCOTT 2.9 WNW,34.5565,-112.5075,1.568471860036959,KHSI,HASTINGS,40.6,-98.43,NE,6.6791694475959975,0,  0,  0,  0,  9,  0,  0,  0,  9,  0,  0,  1, 16
US1AZYV0023,2010-08-04,257699,2027,2010-08-04,2100,COLORADO,8,Heavy Rain,103,RIO BLANCO,GJT,40.0928,-108.8175,40.1652,-108.3637,0,3,USD,CAMP VERDE 7.5 NE,34.647,-111.7697,1.8326749942263827,KVEL,VERNAL,40.45,-109.52,UT,71.70260548334271,0,NA,NA,NA,NA,NA,NA,NA,NA,NA,NA,NA,NA
US1AZYV0030,2015-09-06,598625,2300,2015-09-06,0025,IOWA,19,Heavy Rain,27,CARROLL,DMX,42.12,-94.8,42.12,-94.8,0,3,USD,SEDONA 9.0 WSW,34.7973,-111.9,0.30022630194051625,KCIN,CARROLL,42.05,-94.78,IA,7.965619649390796,1,  0,  0,  9, 16,  0,  0,  9, 16,  0,  4, 21, 57
US1AZYV0040,2014-06-01,510864,1300,2014-06-01,1300,MINNESOTA,27,Heavy Rain,37,DAKOTA,MPX,44.75,-93.2,44.75,-93.2,0,3,USD,PRESCOTT 4.8 E,34.5434,-112.3764,3.714023041371359,KSGS,S. ST. PAUL_MUNI,44.85,-93.15,MN,11.811792853040524,0,  4,  1, 73, 34,  4,  1, 73, 34,  2,  2, 64, 48
US1AZYV0055,2016-10-04,660493,0600,2016-10-04,0000,NEBRASKA,31,Heavy Rain,143,POLK,GID,41.18,-97.6846,41.18,-97.6846,0,3,USD,CORNVILLE 0.8 SSE,34.7063,-111.9185,0.4336676589428941,KJYR,YORK MUNICIPAL ARPT,40.9,-97.62,NE,31.637867831885732,0,  0,  0, 14, 10,  0,  0, 14, 10,  0,  0, 16, 19
US1AZYV0057,2016-08-10,655132,0000,2016-08-11,1200,MINNESOTA,27,Heavy Rain,85,MCLEOD,MPX,44.88,-94.36,44.88,-94.36,0,3,USD,PRESCOTT VALLEY 5.7 N,34.6918,-112.3248,5.7372068721963725,KHCD,HUTCHINSON,44.87,-94.38,MN,1.930912406743298,1,  0,  0,  8, 16,  0,  0,  8, 16,  0,  0, 29, 28
US1AZYV0060,2016-09-06,658289,0015,2016-09-07,1117,WISCONSIN,55,Heavy Rain,123,VERNON,ARX,43.51,-90.67,43.51,-90.67,0,3,USD,SPRING VALLEY 0.4 SW,34.34,-112.164,6.881798183467766,KOVS,BOSCOBEL,43.15,-90.68,WI,40.08319665989794,0,  0,  0,  5, 31,  0,  0,  5, 31,  0,  3, 19, 53
US1AZYV0084,2016-09-06,658295,2345,2016-09-07,1553,WISCONSIN,55,Heavy Rain,123,VERNON,ARX,43.51,-91.05,43.51,-91.05,0,3,USD,PRESCOTT 4.3 NW,34.582,-112.5161,0.24804503682332193,KLSE,LA CROSSE,43.87,-91.25,WI,43.18765382295907,0,  0,  1, 17, 35,  0,  1, 17, 35,  0,  4, 34, 62
US1AZYV0087,2016-08-22,647915,1129,2016-08-22,1129,PENNSYLVANIA,42,Heavy Rain,29,CHESTER,PHI,40.03,-75.67,40.03,-75.67,0,3,USD,DEWEY-HUMBOLDT 1.4 SE,34.514,-112.2241,3.2372684739211324,KPTW,POTTSTOWN,40.23,-75.56,PA,24.152353584954128,0,  3,  4, 90, 49,  3,  4, 90, 49,  3,  1, 83, 46
US1AZYV0087,2016-09-15,658849,1900,2016-09-16,0900,IOWA,19,Heavy Rain,63,EMMET,DMX,43.4,-94.83,43.4,-94.83,0,3,USD,DEWEY-HUMBOLDT 1.4 SE,34.514,-112.2241,2.965722937344682,KEST,ESTHERVILLE,43.4,-94.75,IA,6.4705535435273775,0,  0,  0,  0, 11,  0,  0,  0, 11,  0,  0, 18, 25
US1CABT0002,2015-12-27,605955,1415,2015-12-27,1415,MISSOURI,29,Heavy Rain,9,BARRY,SGF,36.66,-93.84,36.66,-93.84,0,3,USD,OROVILLE 2.7 ENE,39.514,-121.518,4.22570073653156,KROG,ROGERS,36.37,-94.1,AR,39.79028969446211,0,  6,  5,100, 67,  6,  5,100, 67,  6,  6,100, 78
US1CABT0002,2016-07-07,634965,0600,2016-07-07,1048,TENNESSEE,47,Heavy Rain,165,SUMNER,OHX,36.3921,-86.3407,36.3921,-86.3407,0,3,USD,OROVILLE 2.7 ENE,39.514,-121.518,4.22570073653156,KBNA,NASHVILLE,36.12,-86.68,TN,42.95517801081781,0,  0,  0, 17, 32,  0,  0, 17, 32,  1,  0, 60, 17
US1CACC0033,2015-12-27,607229,1645,2015-12-27,1945,KENTUCKY,21,Heavy Rain,15,BOONE,ILN,38.9699,-84.6611,38.9699,-84.6611,0,3,USD,SAN RAMON 1.7 SSE,37.7335,-121.9432,3.0067102480282477,KCVG,COVINGTON,39.05,-84.67,KY,8.949862662224177,0,  3,  5, 92, 58,  3,  5, 92, 58,  4,  4, 92, 49
US1CAED0012,2015-11-09,609569,1700,2015-11-10,1700,VIRGINIA,51,Heavy Rain,85,HANOVER,AKQ,37.7398,-77.4929,37.5795,-77.3442,0,3,USD,CAMINO 2.6 ESE,38.7186,-120.634,0.3803433113046344,KOFP,RICHMOND/HANOVER,37.7,-77.43,VA,7.092684996089018,3,  0,  0,  1,  9,  0,  0,  1,  9,  0,  0, 13, 23
US1CAED0017,2015-06-24,576770,1627,2015-06-25,1627,IOWA,19,Heavy Rain,99,JASPER,DMX,41.76,-93.07,41.76,-93.07,0,3,USD,CAMINO 2.0 WSW,38.7338,-120.711,3.622348925422795,KTNU,NEWTON_MUNI,41.68,-93.02,IA,9.826934918268893,0,  0,  0,  2, 20,  0,  0,  2, 20,  0,  4, 22, 56
US1CAED0017,2015-12-27,606128,1300,2015-12-27,1300,MISSOURI,29,Heavy Rain,161,PHELPS,SGF,38.03,-91.81,38.03,-91.81,0,3,USD,CAMINO 2.0 WSW,38.7338,-120.711,3.9642043414273447,KVIH,VICHY-ROLLA,38.13,-91.77,MO,11.670705032674004,0,  6,  5,100, 66,  6,  5,100, 66,  4,  5, 98, 67
US1CAFR0002,2014-05-15,523704,1900,2014-05-16,2200,VIRGINIA,51,Heavy Rain,85,HANOVER,AKQ,37.7,-77.43,37.7,-77.43,0,3,USD,CLOVIS 2.9 N,36.8611,-119.6931,1.508506332829955,KOFP,RICHMOND/HANOVER,37.7,-77.43,VA,0,0,  0,  1, 12, 37,  0,  1, 12, 37,  0,  3, 34, 46
US1CAFR0002,2014-07-23,523789,2119,2014-07-23,2153,ARKANSAS,5,Heavy Rain,9,BOONE,LZK,36.27,-93.15,36.27,-93.15,0,3,USD,CLOVIS 2.9 N,36.8611,-119.6931,1.508506332829955,KHRO,HARRISON,36.27,-93.15,AR,0,0,  0,  0,  1,  7,  0,  0,  1,  7,  0,  0,  5, 28
US1CAFR0005,2010-07-26,252445,2300,2010-07-26,0000,ARIZONA,4,Heavy Rain,7,GILA,PSR,33.5881,-111.0317,33.5881,-111.0317,0,3,USD,TOLLHOUSE 6.2 SSE,36.9342,-119.3586,4.053466868839115,KIWA,CHANDLER,33.3,-111.67,AZ,67.40816123846038,0,NA,NA,NA,NA,NA,NA,NA,NA,NA,NA,NA,NA
US1CAFR0008,2016-03-06,622312,1400,2016-03-07,1400,CALIFORNIA,6,Heavy Rain,109,TUOLUMNE,STO,38.06,-120.27,38.06,-120.27,0,3,USD,HELM 2.7 NNE,36.5702,-120.0892,33.22746330414542,KMOD,MODESTO,37.63,-120.95,CA,76.57941124417442,0,  4,  4,100, 57,  4,  4,100, 57,  5,  4,100, 80
US1CAFR0008,2016-05-09,625410,1031,2016-05-10,1031,MISSOURI,29,Heavy Rain,91,HOWELL,SGF,36.73,-91.87,36.73,-91.87,0,3,USD,HELM 2.7 NNE,36.5702,-120.0892,15.291974713242626,KUNO,WEST PLAINS ARPT,36.88,-91.91,MO,17.07429716550199,0,  0,  0, 10, 18,  0,  0, 10, 18,  0,  0, 22, 22
US1CAFR0008,2016-05-09,625410,1031,2016-05-10,1031,MISSOURI,29,Heavy Rain,91,HOWELL,SGF,36.73,-91.87,36.73,-91.87,0,3,USD,HELM 2.7 NNE,36.5702,-120.0892,15.291974713242626,KUNO,WEST PLAINS ARPT,36.88,-91.91,MO,17.07429716550199,0,  0,  0, 10, 18,  0,  0, 10, 18,  0,  0, 22, 22
US1CAFR0008,2016-05-09,625412,1230,2016-05-10,1230,MISSOURI,29,Heavy Rain,203,SHANNON,SGF,36.98,-91.36,36.98,-91.36,0,3,USD,HELM 2.7 NNE,36.5702,-120.0892,17.070004426624898,KUNO,WEST PLAINS ARPT,36.88,-91.91,MO,50.191959101592566,0,  0,  0, 10, 18,  0,  0, 10, 18,  0,  0, 22, 22
US1CAFR0008,2016-05-09,625412,1230,2016-05-10,1230,MISSOURI,29,Heavy Rain,203,SHANNON,SGF,36.98,-91.36,36.98,-91.36,0,3,USD,HELM 2.7 NNE,36.5702,-120.0892,17.070004426624898,KUNO,WEST PLAINS ARPT,36.88,-91.91,MO,50.191959101592566,0,  0,  0, 10, 18,  0,  0, 10, 18,  0,  0, 22, 22
